name,operator,output,source,method,wikidata_id,latitude,longitude
"Bruce Nuclear Generating Station","Bruce Power","6,232 MW","nuclear","fission",Q795104,44.325306,-81.599389
"Centrale Robert-Bourassa","Hydro-Québec","5,616 MW","hydro","water-storage",Q1456859,53.795306,-77.440611
"Churchill Falls Generating Station","Newfoundland and Labrador Hydro","5,428 MW","hydro","water-storage",Q1458507,53.528611,-63.965833
"Darlington Nuclear Generating Station","Ontario Power Generation","3,512 MW","nuclear","fission",Q1739391,43.872778,-78.719722
"Gordon M. Shrum Generating Station","BC Hydro","2,880 MW","hydro","water-storage",Q1758688,56.016667,-122.201111
"Mica","BC Hydro","2,805 MW","hydro","water-storage",,50,-100
"Centrale La Grande-4",,"2,779 MW","hydro",,Q1339475,53.886111,-73.4625
"Revelstoke Generating Station","BC Hydro","2,480 MW","hydro",,Q1433635,51.049444,-118.193889
"La Grande-3","Hydro-Québec","2,418 MW","hydro","run-of-the-river",Q1339454,53.729694,-75.968306
"Centrale La Grande-2A","Hydro-Québec","2,106 MW","hydro","water-storage",Q1337853,53.779389,-77.548306
"Lennox Generating Station",,"2,100 MW","gas","combustion",Q6522858,44.146111,-76.8525
"Pickering Nuclear Generating Station","Ontario Power Generation","2,086 MW","nuclear","fission",Q1739455,43.811667,-79.065833
"Centrale de Beauharnois","Hydro-Québec","1,903 MW","hydro","run-of-the-river",Q925113,45.313889,-73.908889
"Genesee Generating Station","Capital Power","1,857 MW","gas","combustion",Q5532732,53.343056,-114.303056
"Centrale Manic-5","Hydro-Québec","1,596 MW","hydro",,Q1425918,50.646667,-68.724444
"Sir Adam Beck II Generating Station",,"1,499 MW","hydro","water-storage",Q7525907,43.1475,-79.044694
"Centrale La Grande-1","Hydro-Québec","1,436 MW","hydro",,Q1338919,53.734444,-78.573889
"Limestone Generating Station","Manitoba Hydro","1,340 MW","hydro","run-of-the-river",Q6830590,56.506889,-94.106889
"Kettle Generating Station","Manitoba Hydro","1,220 MW","hydro","run-of-the-river",Q6395516,56.384194,-94.635
"Centrale René-Lévesque","Hydro-Québec","1,183 MW","hydro","water-storage",Q1302322,49.739694,-68.592194
"Centrale Bersimis 1","Hydro-Québec","1,178 MW","hydro",,Q1410164,49.295806,-69.550806
"Centrale Jean-Lesage","Hydro-Québec","1,145 MW","hydro","water-storage",Q1328614,49.321667,-68.346667
"Centrale Shipshaw","Rio Tinto Alcan","1,145 MW","hydro",,Q3482327,48.45,-71.22
"Site C Powerhouse","BC Hydro","1,100 MW","hydro","run-of-the-river",,50,-100
"Centrale Manic-5-PA","Hydro-Québec","1,064 MW","hydro",,Q1425918,50.646667,-68.724444
"R.H. Saunders Generating Station","Ontario Power Generation","1,045 MW","hydro","run-of-the-river",,50,-100
"Greenfield Energy Centre","Calpine","1,038 MW","gas","combustion",Q5603958,42.769194,-82.452806
"Centrale Outardes-3","Hydro-Québec","1,026 MW","hydro","run-of-the-river",Q1329257,50,-100
"Long Spruce Generating Station",,"1,010 MW","hydro","run-of-the-river",Q373526,56.400306,-94.369389
"Coleson Cove Generating Station","NB Power","978 MW","oil","combustion",Q5144673,45.153611,-66.203056
"Kemano Generating Station","Rio Tinto","890 MW","hydro","water-storage",Q21188284,53.556944,-127.940833
"Kemano Generating Station",,"890 MW","hydro",,Q21188284,53.556944,-127.940833
"Centrale de la Sainte-Marguerite-3","Hydro-Québec","884 MW","hydro","water-storage",Q5257060,50,-100
"Centrale Laforge-1","Hydro-Québec","878 MW","hydro",,Q1338720,54.166694,-72.616694
"Centrale Bersimis-2","Hydro-Québec","869 MW","hydro","run-of-the-river",Q1338316,49.175306,-69.229194
"Shepard Energy Centre","Enmax / Capital Power","860 MW","gas","combustion",Q28233486,50.970556,-113.885
"Keephills Generating Station",,"858 MW","gas","combustion",Q6383236,53.448333,-114.450556
"Seven Mile Dam Generating Station","FortisBC","848 MW","hydro",,Q7457335,49.03,-117.503889
"Goreway Power Station","Ontario Power Authority","839 MW","gas","combustion",Q5586190,43.746111,-79.68
"Centrale de Chute-des-Passes","Rio Tinto Alcan","833 MW","hydro","water-storage",Q61376957,49.840561,-71.162781
"Centrale Bernard-Landry","Hydro-Québec","829 MW","hydro","run-of-the-river",Q65212746,52.181667,-76.050278
"Muskrat Falls","Newfoundland and Labrador Hydro","824 MW","hydro",,Q65211718,53.245556,-60.772778
"Boundary Dam Power Station","SaskPower","813 MW","coal","combustion",Q4949936,49.096389,-103.03
"Sheerness Generating Station","ATCO Electric - TransAlta Utilities","800 MW","gas","combustion",Q7492507,51.442222,-111.792222
"Centrale aux Outardes-4",,"785 MW","hydro",,Q1328582,49.705611,-68.905806
"Centrale de Carillon","Hydro-Québec","753 MW","hydro","run-of-the-river",Q2944472,45.568611,-74.383611
"Peace Canyon Generating Station","BC Hydro","736 MW","hydro",,Q7157342,55.981889,-121.994
"Keeyask Generating Station",,"695 MW","hydro",,Q65212702,56.349722,-95.201944
"Point Lepreau Nuclear Generating Station","NB Power","660 MW","nuclear","fission",Q1391137,45.069444,-66.455556
"Mactaquac Generating Station","NB Power","653 MW","hydro","run-of-the-river",Q65211669,50,-100
"Halton Hills Generating Station","Atura Power","642 MW","gas","combustion",,50,-100
"Centrale La Romaine-2","Hydro-Québec","640 MW","hydro","water-storage",Q65212845,50.624167,-63.194167
"Queen Elizabeth Power Station",,"634 MW","gas","combustion",Q7270374,52.095278,-106.706111
"Lingan Generating Station",,"620 MW","coal","combustion",Q6553764,46.235542,-60.039269
"Bay d'Espoir Hydroelectric Power Station",,"604 MW","hydro",,Q4874173,47.990244,-55.800142
"Kootenay Canal Generating Station","BC Hydro","583 MW","hydro",,Q6430821,49.452778,-117.518056
"Poplar River Power Station","SaskPower","582 MW","coal","combustion",Q7229425,49.0575,-105.483056
"Brighton Beach LP Power Station","Atco Power & Ontario Power Generation","580 MW","gas","combustion",Q4967600,42.279722,-83.095
"Centrale de cogénération de Bécancour","TC Énergie","550 MW","gas","combustion",Q11960391,46.3675,-72.403611
"Portlands Energy Centre","Ontario Power Generation/TransCanada Energy Limited","550 MW","gas","combustion",Q7232096,43.649389,-79.330806
"Portlands Energy Centre","Atura Power","550 MW","gas","combustion",Q7232096,43.649389,-79.330806
"Battle River Generating Station","ATCO Power","540 MW","gas","combustion",Q4870103,52.468889,-112.133889
"Centrale de la Toulnustouc","Hydro-Québec","526 MW","hydro",,Q203226,49.97,-68.16
"Centrale aux Outardes-2",,"523 MW","hydro","run-of-the-river",Q1329822,49.144444,-68.389722
"Sundance Power Station",,"514 MW","gas","combustion",Q7639182,53.5075,-114.556944
"Centrale Eastmain-1","Hydro-Québec","507 MW","hydro","run-of-the-river",Q65212745,50,-100
"NB Power Belledune Generating Station","NB Power","490 MW","coal","combustion",Q11960505,47.860281,-65.861389
"Waneta Dam","FortisBC","490 MW","hydro","run-of-the-river",Q7967344,49.004167,-117.611944
"Bridge River 1 & 2 Generating Stations","BC Hydro","478 MW","hydro",,Q4966280,50.731694,-122.2425
"Joffre Cogeneration CCGT Power Plant","Heartland Generation Ltd., Capital Power","474 MW","gas","combustion",Q6214627,52.306667,-113.553889
"Grand Rapids Generating Station","Manitoba Hydro","472 MW","hydro","run-of-the-river",,50,-100
"Centrale Brisay","Hydro-Québec","469 MW","hydro",,Q1338361,54.441694,-70.530611
"Buffalo Plains Wind Farm","Copenhagen Infrastructure Partners","466 MW","wind",,,50,-100
"Travers Solar","Travers 2 Solar LP","465 MW","solar","photovoltaic",,50,-100
"Holyrood Thermal Generating Station","Nalcor","450 MW","oil",,Q5887144,47.452817,-53.095481
"Centrale d'isle Maligne","Rio Tinto Alcan","448 MW","hydro","water-storage",Q2944567,48.58,-71.64
"Sarnia Regional Cogeneration Plant","TransAlta","444 MW","gas",,Q7424349,42.934722,-82.438056
"Sir Adam Beck I Generating Station",,"437 MW","hydro","water-storage",Q7525907,43.1475,-79.044694
"Des Joachims Power Station",,"429 MW","hydro",,Q11965343,46.181111,-77.695831
"Firebag Oil Sands power station",,"425 MW","gas","combustion",,50,-100
"Tufts Cove Generating Station","Nova Scotia Power","415 MW","gas;oil","combustion",,50,-100
"Centrale La Romaine-3","Hydro-Québec","414 MW","hydro","water-storage",Q65212846,50,-100
"Bécancour gas turbine","Hydro-Québec","411 MW","gas","combustion",,50,-100
"Millbank power plant","Energie NB Power","397 MW","diesel",,,50,-100
"Parc éolien Rivière-du-Moulin","EDF Renouvelables","395 MW","wind",,,50,-100
"Complexe hydroélectrique de Shawinigan","Hydro-Québec","394 MW","hydro","run-of-the-river",Q42805033,46.537222,-72.765861
"Centrale de la Péribonka",,"385 MW","hydro",,Q2944505,50,-100
"Brazeau Powerhouse","TransAlta","355 MW","hydro",,,50,-100
"Chinook Power Station","SaskPower","353 MW","gas","combustion",,50,-100
"Parc éolien de la Seigneurie de Beaupré","Boralex","350 MW","wind",,,50,-100
"Abitibi Canyon Generating Station",,"349 MW","hydro",,Q4667986,49.877806,-81.570806
"Centrale McCormick","Hydro-Québec","335 MW","hydro",,Q731237,49.193056,-68.326944
"Brandon Generating Station",,"333 MW","gas","combustion",Q4956866,49.845306,-99.889194
"Calgary Energy Centre","Enmax","320 MW","gas","combustion",Q28233484,51.1803,-113.9368
"Centrale Laforge-2","SEBJ; Hydro-Québec","319 MW","hydro",,Q1329837,54.588889,-71.280611
"Trenton Generating Station","Nova Scotia Power","310 MW","coal","combustion",,50,-100
"Jenner Wind Power Project Phase 1-3","Jenner Wind Limited Partnership (JWLP)","303 MW","wind",,,50,-100
"Centrale de la Trenche","Hydro-Québec","302 MW","hydro","water-storage",Q769693,47.75,-72.88
"H.R. Milner Plant","Maxim Power Corp","300 MW","gas","combustion",,50,-100
"Parc éolien du Lac-Alfred","Enbridge, EDF EN, MRC de La Matapédia et MRC de La Mitis","300 MW","wind",,,50,-100
"Blackspring Ridge Wind Farm","EDF Renewables Canada","299 MW","wind",,,50,-100
"Sharp Hills Wind Farm","edp Renewables","297 MW","wind",,,50,-100
"Centrale de La Tuque",,"294 MW","hydro","water-storage",Q2944478,47.44,-72.8
"Bayside Generating Station","NB Power","290 MW","oil",,,50,-100
"E.B. Campbell Hydroelectric Station","SaskPower","288 MW","hydro",,Q5321573,53.688611,-103.347
"Forty Mile Bow Island Wind Farm","Acciona Energia","280 MW","wind","wind_turbine",,50,-100
"Shand Power Station",,"279 MW","coal","combustion",Q7487893,49.088333,-102.863889
"Lower Notch Generating Station","Ontario Power Generation","274 MW","hydro","run-of-the-river",,50,-100
"Centrale Beaumont","Hydro-Québec","270 MW","hydro","run-of-the-river",Q2944447,50,-100
"Centrale La Romaine-1","Hydro-Québec","270 MW","hydro",,Q65212844,50,-100
"Smoky Falls Generating Station","Ontario Power Generation and Moose Cree First Nation","268 MW","hydro","run-of-the-river",Q19263975,50.067222,-82.167222
"Brilliant Generating Station","FortisBC","265 MW","hydro","water-storage",,50,-100
"Cory Cogeneration Station",,"260 MW","gas","combustion",Q5173563,52.093611,-106.868056
"North Battleford Energy Centre",,"260 MW","gas","combustion",,50,-100
"Kearl","Imperial Oil","255 MW","gas","combustion",,50,-100
"Medicine Hat Plant","City of Medicine Hat","255 MW","gas","combustion",,50,-100
"Nipawin Hydroelectric Station","SaskPower","255 MW","hydro","run-of-the-river",Q7039428,53.319722,-104.041944
"Island Cogeneration Plant","Capital Power Corporation","254 MW","gas","combustion",Q16979619,50.075556,-125.286667
"Kelsey Generating Station","Manitoba Hydro","250 MW","hydro","run-of-the-river",Q1323872,56.040556,-96.538889
"Oneida Energy Storage","Oneida LP","250 MW","battery","battery-storage",,50,-100
"Cypress (1&2) Wind Project","EDF Renewables","247 MW","wind",,Q122944892,49.858889,-110.359611
"Centrale La Romaine-4","Hydro-Québec","245 MW","hydro",,,50,-100
"Centrale de Chute-Savane","Rio Tinto Alcan","245 MW","hydro","run-of-the-river",Q61376973,48.753056,-71.84
"Clover Bar Energy Centre","Capital Power","243 MW","gas","combustion",,50,-100
"Otto Holden Generating Station","Ontario Power Generation","243 MW","hydro",,Q19384947,46.378056,-78.726944
"Centrale Chute-du-Diable","Rio Tinto Alcan","240 MW","hydro",,Q61376971,50,-100
"Wells GS","Brookfield Renewable","239 MW","hydro",,,50,-100
"Little Long Generating Station","Ontario Power Generation and Moose Cree First Nation","233 MW","hydro","run-of-the-river",,50,-100
"Meridian Cogeneration Power Plant","SaskPower","228 MW","gas","combustion",Q6819358,53.259444,-109.951111
"Parc éolien Nicolas-Riou","EDF EN, Régie intermunicipale de l’énergie du Bas-Saint-Laurent et Régie intermunicipale de l’énergie de la Gaspésie-Îles-de-la-Madeleine","224 MW","wind",,,50,-100
"Centrale de Chute-à-Caron","Rio Tinto Alcan","222 MW","hydro",,Q61376989,48.451111,-71.253889
"Wreck Cove Hydro","Nova Scotia Power","216 MW","hydro","water-storage",,50,-100
"Centrale Paugan","Hydro-Québec","213 MW","hydro",,,50,-100
"Parc éolien de Gros-Morne","Cartier Énergie Éolienne","212 MW","wind","wind_turbine",Q3588993,50,-100
"Windrise Wind Project","TransAlta Renewables","206 MW","wind",,,50,-100
"Atikokan Generating Station",,"205 MW","biomass",,Q4815789,48.838111,-91.570806
"Centrale de Shawinigan-2","Hydro-Québec","204 MW","hydro","run-of-the-river",Q2944489,46.54,-72.77
"Centrale du Rapide-Blanc","Hydro-Québec","204 MW","hydro","water-storage",Q430663,47.796611,-72.973419
"Kipling Generating Station","Ontario Power Generation and Moose Cree First Nation","204 MW","hydro","run-of-the-river",,50,-100
"Forty Mile Wind Power Project","Suncor","202 MW","wind",,,50,-100
"Whitla Wind 1","Capital Power Energy","202 MW","wind",,,50,-100
"Parc éolien Apuiat","Boralex","200 MW","wind",,,50,-100
"Wuskwatim Hydroelectric Plant",,"200 MW","hydro",,Q12010818,50,-100
"Forrest Kerr Hydroelectric Project","AltaGas","195 MW","hydro","run-of-the-river",,50,-100
"Centrale de Shawinigan-3","Hydro-Québec","194 MW","hydro","run-of-the-river",Q2944497,46.53,-72.77
"Chats Falls Power Station","Hydro One Networks Inc.","188 MW","hydro","run-of-the-river",Q2944502,45.476389,-76.248611
"Coteau Creek Hydroelectric Station","SaskPower","186 MW","hydro",,Q5175321,51.275,-106.873056
"Arrow Lakes Generating Station","Columbia Power Corporation","185 MW","hydro","water-storage",Q2885187,49.339444,-117.771944
"Centrale Manic-1","Hydro-Québec","184 MW","hydro",,Q120596,49.191389,-68.329389
"Point Aconi Generating Station","Nova Scotia Power","183 MW","coal","combustion",,50,-100
"Otter Rapids Generating Station","Ontario Power Generation","182 MW","hydro","run-of-the-river",Q7109418,50.183611,-81.636111
"Stewartville Generating Station","Ontario Power Generation","182 MW","hydro","run-of-the-river",Q65211734,50,-100
"Barrett Chute power plant","Ontario Power Generation","176 MW","hydro",,Q65211656,50,-100
"Centrale des Rapides-des-Îles",,"176 MW","hydro",,,50,-100
"Sir Adam Beck Pump Generating Station",,"174 MW","hydro","water-pumped-storage",,50,-100
"Jordan River Generating Station",,"170 MW","hydro","water-storage",Q6276934,48.496389,-123.993056
"Long Lake Cogeneration Power Station",,"170 MW","oil","combustion",,50,-100
"Centrale Adam-Cunningham","Produits forestiers Resolu","170 MW","hydro","water-storage",,50,-100
"Kent Hills Wind Farm","TransAlta","167 MW","wind",,Q6391767,45.805611,-64.895806
"MacKay River TC Power Plant",,"165 MW","gas","combustion",,50,-100
"Seven Sisters Generating Station","Manitoba Hydro","165 MW","hydro",,Q30626851,50.115278,-96.013056
"Aubrey Falls",,"162 MW","hydro",,Q65211721,46.909444,-83.212778
"Cheakamus/Squamish River Powerhouse","BC Hydro","157 MW","hydro",,Q17762159,49.933889,-123.291111
"Chelsea generating station","Hydro-Québec","153 MW","hydro",,,50,-100
"Centrale de Chelsea","Hydro-Québec","152 MW","hydro","run-of-the-river",Q2944466,45.51,-75.78
"Grizzly Bear Wind Power Project","Enel","152 MW","wind",,,50,-100
"Lanfine Wind Farm","Pattern Energy","151 MW","wind",,,50,-100
"Whitla Wind 2","Capital Power Energy","151 MW","wind",,,50,-100
"Centennial Wind Power Facility","SaskPower","150 MW","wind",,,50,-100
"Centrale de la Sarcelle","SEBJ","150 MW","hydro","run-of-the-river",Q2944504,52.67,-76.63
"Halkirk Wind Power Facility","Capital Power","150 MW","wind",,,50,-100
"Parc éolien du Massif du Sud","Enbridge et EDF Énergies Nouvelles","150 MW","wind",,,50,-100
"Point Tupper Generating Station","Nova Scotia Power","150 MW","coal","combustion",Q7208178,45.5869,-61.3481
"East Toba River Hydroelectric Project","Innergex","147 MW","hydro",,Q61375449,50.675,-123.96
"Hand Hills Wind Project","BlueEarth Renewables","145 MW","wind",,,50,-100
"Pine Portage Generating Station",,"145 MW","hydro","run-of-the-river",Q65211675,50,-100
"Chenaux Station","Ontario Power Generation","144 MW","hydro",,Q11963506,45.583889,-76.673889
"DeCew II Generating Station","Ontario Power Generation","144 MW","hydro","run-of-the-river",,50,-100
"Dokie Ridge Wind Farm",,"144 MW","wind",,Q5288739,50,-100
"ENMAX Crossfield Energy Centre","Enmax","144 MW","gas","combustion",,50,-100
"Quality Wind Project","Capital Power","142 MW","wind",,,50,-100
"Harmon","Ontario Power Generation and Moose Cree First Nation","141 MW","hydro","run-of-the-river",,50,-100
"Parc éolien Le Plateau","Invenergy Wind Canada LLC","139 MW","wind","wind_turbine",,50,-100
"St. Joseph Wind Farm",,"138 MW","wind","wind_turbine",,50,-100
"Parc éolien Des Moulins","Invenergy Wind Canada","136 MW","wind",,,50,-100
"Yellowhead Power Plant","SaskPower","135 MW","gas","combustion",,50,-100
"Parc éolien de Saint-Ulric, Saint-Léandre (Jardin d'Eole)","Northland Power","133 MW","wind",,,50,-100
"Centrale La Gabelle","Hydro-Québec","131 MW","hydro","run-of-the-river",Q2944479,46.45,-72.74
"Centrale de la Première-Chute","Hydro-Québec","130 MW","hydro",,Q2944501,47.6,-79.45
"Garden Plain Wind Project","Pattern Energy","130 MW","wind",,,50,-100
"Rattlesnake Ridge Wind Farm","Berkshire Hathaway Energy","130 MW","wind",,,50,-100
"Deer Lake Hydro Plant","Kruger Energy","129 MW","hydro","water-storage",Q65211702,49.173611,-57.431111
"Great Falls Generating Station","Manitoba Hydro","129 MW","hydro","run-of-the-river",Q5599160,50.462806,-96.006889
"Jenpeg Generating Station","Manitoba Hydro","129 MW","hydro","run-of-the-river",Q19376202,50,-100
"Cat Arm Generating Station","Newfoundland and Labrador Hydro","127 MW","hydro","water-storage",,50,-100
"Selkirk Generating Station","Manitoba Hydro","125 MW","gas","combustion",,50,-100
"Wheatland Wind Project","Wheatland Wind Project Ltd.","122 MW","wind",,,50,-100
"Centrale des Cèdres","Hydro-Québec","122 MW","hydro","run-of-the-river",Q2944510,45.31,-74.03
"Summerview 1 & 2 Wind Farm","TransAlta Renewables","122 MW","wind",,,50,-100
"Balzac Power Station","Nexen","120 MW","gas","combustion",,50,-100
"Bighorn Hydro Plant","TransAlta","120 MW","hydro","water-storage",,50,-100
"Burnside Combustion Turbine Power Plant","Nova Scotia Power","120 MW","oil","combustion",,50,-100
"Cavalier Energy Centre","Enmax","120 MW","gas","combustion",,50,-100
"Cold Lake Project Mahkeses Power Station",,"120 MW","oil","combustion",,50,-100
"McMahon Cogeneration Plant","NorthRiver Midstream;Heartland Generation","120 MW","gas","combustion",Q14874686,56.148111,-120.668
"Dow Chemical Fort Saskatchewan Alberta Power Plant",,"118 MW","gas","combustion",,50,-100
"Sterling Wind Project",,"113 MW","wind",,,50,-100
"Beechwood Generating Station","NB Power","112 MW","hydro",,,50,-100
"[unnamed]","TransAlta","112 MW","hydro","water-storage",,50,-100
"Island Falls Hydroelectric Station",,"111 MW","hydro","water-storage",Q14874962,55.528889,-102.357
"Kingston Generating Station","Northland Power","110 MW","gas","combustion",,50,-100
"Parc éolien Baie-des-Sables","Innergex","110 MW","wind",,Q3588993,50,-100
"Centrale des Rapides-des-Quinze","Hydro Quebec","109 MW","hydro","run-of-the-river",,50,-100
"Parc éolien de Carleton","Innergex","109 MW","wind",,,50,-100
"Castle Rock Ridge 1 & 2 Wind Farm","Castle Rock Ridge Limited","106 MW","wind",,,50,-100
"Ruskin Dam","BC Hydro","106 MW","hydro","water-storage",Q7380953,49.195806,-122.408
"Algoma Salut Ste. Marie",,"105 MW","gas",,,50,-100
"Centrale Masson",,"105 MW","hydro",,,50,-100
"Centrale de Grand-Mère",,"105 MW","hydro","water-storage",Q2944474,46.62,-72.68
"Grande Prairie Generating Station","Constellation Energy Corporation","105 MW","gas","combustion",,50,-100
"Riverview Wind Farm","Enel Green Power Canada","105 MW","wind",,,50,-100
"Port Dover and Nanticoke Wind Farm","Capital Power","104 MW","wind",,,50,-100
"Poste des Cèdres","Hydro-Québec","103 MW","hydro","run-of-the-river",,50,-100
"Bear Mountain Wind Farm","Bear Mountain Wind LP","102 MW","wind","wind_turbine",Q4876515,50,-100
"South Canoe Wind Energy","Nova Scotia Power, Oxford Frozen Foods and Minas Basin Pulp and Power","102 MW","wind","wind_turbine",,50,-100
"Parc éolien Montérégie","Kruger Énergie Montérégie S.E.C. (KÉMONT)","101 MW","wind",,,50,-100
"Parc éolien Vents du Kempt","Eolectric","101 MW","wind",,,50,-100
"Parc éolien Mont Sainte-Marguerite","Éolectric","101 MW","wind",,Q131927009,46.323694,-71.149194
"Parc éolien Mont-Louis","Northland Power","100 MW","wind","wind_turbine",,50,-100
"Parc éolien de l'Anse-a-Valleau","Cartier Énergie Éolienne","100 MW","wind",,Q3588993,50,-100
"Corner Brook Pulp And Paper","Kruger","100 MW","biomass",,,50,-100
"Grand Renewable Solar","Samsung Renewable Energy;Six Nations of the Grand River","100 MW","solar","photovoltaic",,50,-100
"Hilda Wind Farm","RES Canada","100 MW","wind",,,50,-100
"Kingston Solar","Samsung Renewable Energy;Six Nations of the Grand River","100 MW","solar","photovoltaic",,50,-100
"Parc éolien de l'Érable","Enerfin Energy Co.","100 MW","wind",,,50,-100
"Cape Scott Wind Farm",,"99 MW","wind","wind_turbine",,50,-100
"Caribou Wind Park Wind Farm",,"99 MW","wind","wind_turbine",,50,-100
"Erie Shores Wind Farm","Erie Shores Wind","99 MW","wind","wind_turbine",,50,-100
"Saint Leon Wind Farm","Algonquin Power","99 MW","wind",,,50,-100
"Sainte Rose Generating Station","NB Power","99 MW","diesel",,,50,-100
"West Cape Wind Farm","Engie","99 MW","wind","wind_turbine",,50,-100
"Centrale des Rapides-Farmer","Hydro-Québec","98 MW","hydro",,Q2944516,45.5,-75.76
"Drumheller Solar Farm","Drumheller Solar Corporation","96 MW","solar","photovoltaic",,50,-100
"Carseland Captive Power Station","Nutrien","95 MW","gas","combustion",,50,-100
"Cameron Falls Generating Station",,"92 MW","hydro","run-of-the-river",Q65211708,50,-100
"East Windsor Cogeneration Centre","Capital Power","92 MW","gas","combustion",,50,-100
"Caribou Falls Generation Station","Ontario Power Generation","91 MW","hydro","run-of-the-river",,50,-100
"Digby Neck Wind Farm","Sprott Power Corporation","90 MW","wind","wind_turbine",,50,-100
"Ermine Power Station","SaskPower","90 MW","gas","combustion",,50,-100
"Stave Falls Dam","BC Hydro","90 MW","hydro","water-storage",Q7604795,49.229694,-122.356
"Valleyview 1 / 2","ATCO Power","90 MW","gas","combustion",,50,-100
"Spy Hill Power Plant","Northland Power Inc.","89 MW","gas","combustion",,50,-100
"Montrose Creek Hydroelectric Project",,"88 MW","hydro",,,50,-100
"Pine Falls Generating Station","Manitoba Hydro","88 MW","hydro","run-of-the-river",Q65211723,50,-100
"Wintering Hills Wind Farm","TransAlta Renewables","88 MW","wind",,,50,-100
"[unnamed]",,"88 MW","gas","combustion",,50,-100
"Twin Rivers Paper","Twin Rivers Paper","87 MW","biomass","combustion",,50,-100
"Chaudière Falls","Portage Power","84 MW","hydro","run-of-the-river",Q2944473,45.421667,-75.719722
"Upper Salmon Hydroelectric Development","Bay D'Espoir Hydroelectric Development","84 MW","hydro","water-storage",,50,-100
"Arnprior Generating Station","Ontario Power Generation","82 MW","hydro","run-of-the-river",Q65211689,45.42,-76.352778
"Ghost Pine Wind Farm","NextEra","82 MW","wind",,,50,-100
"Upper Lillooet River",,"81 MW","hydro",,Q61375480,50.651944,-123.441111
"Enmax Taber Wind Farm","ENMAX","81 MW","wind",,,50,-100
"Air Liquide Scotford Complex Power Plant",,"80 MW","gas","combustion",,50,-100
"Sarnia Solar Energy Project","First Solar","80 MW","solar","photovoltaic",,50,-100
"Raleigh Wind Farm",,"78 MW","wind","wind_turbine",,50,-100
"Centrale des Rapide-des-Cœurs","Hydro-Québec","76 MW","hydro","run-of-the-river",Q2944511,47.786389,-73.375
"Parc éolien de Témiscouata (Saint-Honoré, Saint-Elzéar)","Boralex","75 MW","wind",,,50,-100
"Claresholm Solar 2","Capstone Infrastructure","75 MW","solar","photovoltaic",,50,-100
"Clydesdale Solar","Capital Power","75 MW","solar","photovoltaic",,50,-100
"Hinds Lake Generating Station",,"75 MW","hydro","run-of-the-river",Q5766221,49.082819,-57.201197
"McBride Lake Wind Farm",,"75 MW","wind",,,50,-100
"Pointe du Bois Generating Station","Manitoba Hydro","75 MW","hydro","run-of-the-river",Q65211725,50,-100
"Parc éolien Roncevaux",,"75 MW","wind","wind_turbine",,50,-100
"Mont-Rothery Wind Farm",,"74 MW","wind","wind_turbine",,50,-100
"Ottawa Cogeneration Plant","TransAlta","74 MW","gas","combustion",,50,-100
"Fort Nelson","BC Hydro","73 MW","gas","combustion",,50,-100
"Manitou Station","Ontario Power Generation","73 MW","hydro",,Q65211717,50,-100
"West Windsor Power Plant","TransAlta","72 MW","gas","combustion",,50,-100
"Soderglen Wind Farm",,"70 MW","wind",,,50,-100
"Alexander Falls Generating Station","Ontario Power Generation","69 MW","hydro","run-of-the-river",,50,-100
"Ardenville Wind Farm","TransAlta Wind","69 MW","wind",,,50,-100
"Whitedog Falls Generating Station","Ontario Power Generation","68 MW","hydro","run-of-the-river",,50,-100
"Parc éolien New Richmond New Richmond, Saint-Alphonse et Caplan","MW Intermediary LP","68 MW","wind",,,50,-100
"Centrale de Rapide-2",,"67 MW","hydro",,,50,-100
"Centrale de Rapide-7",,"67 MW","hydro","water-storage",,50,-100
"Slave Falls Generating Station","Manitoba Hydro","67 MW","hydro","run-of-the-river",Q65211728,50,-100
"Blue Trail Wind","TransAlta Renewables","66 MW","wind",,,50,-100
"Grand Falls Generating Station","New Brunswick Power Corporation","66 MW","hydro",,Q65211697,50,-100
"McLymont Creek Hydroelectric Project","Coast Mountain Hydro","66 MW","hydro","run-of-the-river",,50,-100
"McLymont Creek Hydroelectric Project",,"66 MW","hydro",,,50,-100
"Upper Bonnington Generating Station","FortisBC","66 MW","hydro","run-of-the-river",Q61162271,49.46,-117.483889
"Victoria Junction Combustion Turbines","Nova Scotia Power","66 MW","diesel","combustion",,50,-100
"Williams Lake Power Plant","Atlantic Power Corporation","66 MW","biomass","combustion",,50,-100
"Strathcona Dam Generating Station","BC Hydro","64 MW","hydro","water-storage",,50,-100
"Centrale Jim-Gray","Produits forestiers Resolu","63 MW","hydro","water-storage",,50,-100
"Kettles Hill Wind Farm",,"63 MW","wind",,,50,-100
"Glen Dhu Wind","Capstone Infrastucture","62 MW","wind","wind_turbine",,50,-100
"Centrale de la chute Allard","Hydro-Québec","62 MW","hydro","water-storage",Q2944490,47.89,-73.72
"Jimmie Creek Hydroelectric Project","Innergex","62 MW","hydro",,Q61375562,50.605,-124.025
"MacKay Generating Station","Brookfield Renewable Energy","62 MW","hydro","run-of-the-river",,50,-100
"Thunder Bay Abibow power station",,"62 MW","biomass",,,50,-100
"Buffalo Atlee Wind Farm","Capstone Infrastructure","61 MW","wind",,,50,-100
"Buntzen powerhouse #1","BC Hydro","60 MW","hydro","water-storage",,50,-100
"Wahleach Power Station",,"60 MW","hydro",,Q61375377,49.236944,-121.68
"[unnamed]","Nova Scotia Power","60 MW","biomass","combustion",,50,-100
"NextEra Adelaide Wind Energy Centre","NextEra Energy Canada","60 MW","wind",,,50,-100
"Parc éolien de Montagne Sèche","Cartier Énergie Éolienne","58 MW","wind","wind_turbine",,50,-100
"Bow Lake Wind Farm","Nodin Kitagan Limited Partnership","58 MW","wind",,,50,-100
"Claresholm Solar 1","Capstone Infrastructure","58 MW","solar","photovoltaic",,50,-100
"Centrale de Bryson",,"56 MW","hydro","run-of-the-river",Q2944464,45.66,-76.63
"Ghost Lake Hydroelectric Plant","TransAlta","56 MW","hydro","water-storage",,50,-100
"Parc éolien Le-Nordais (Cap-Chat)","TransAlta","56 MW","wind",,Q3588993,50,-100
"McArthur Generating Station","Manitoba Hydro","55 MW","hydro","run-of-the-river",Q65211713,50,-100
"Lower Bonnington Generating Station","FortisBC","54 MW","hydro","run-of-the-river",Q61162277,49.461944,-117.5
"Loyalist Solar","BluEarth Renewables","54 MW","solar","photovoltaic",,50,-100
"Parc éolien du Mont-Copper","NextEra Energie Canada","54 MW","wind",,Q3588993,50,-100
"Parc éolien du Mont-Miller","NextEra Energie Canada","54 MW","wind",,Q3588993,50,-100
"South Slocan Generating Station","FortisBC","54 MW","hydro","run-of-the-river",Q61162267,49.455,-117.52
"Whatshan Dam","BC Hydro","54 MW","hydro","water-storage",,50,-100
"Centrale Murdock Wilson","Resolute Forest Products","53 MW","hydro",,Q65212744,50,-100
"Centrale de la Hart-Jaune","Hydro-Québec","51 MW","hydro",,Q2944500,51.79,-67.91
"Dalhousie Mountain Wind Farm","RMS Energy","51 MW","wind","wind_turbine",,50,-100
"Fort Frances Mill Power Plant",,"50 MW","biomass",,,50,-100
"Mamquam Generating Station","Atlantic Power","50 MW","hydro",,,50,-100
"Maritime Electric Diesel Generator","Maritime Electric","50 MW","diesel","combustion",,50,-100
"Rundle Hydro Plant","TransAlta","50 MW","hydro","water-storage",,50,-100
"Southgate Solar","Southgate Solar LP (Samsung)","50 MW","solar","photovoltaic",,50,-100
"Stephenville Turbine Station","Newfoundland and Labrador Hydro","50 MW","diesel","combustion",,50,-100
"Wheatcrest Solar Project","BluEarth Renewables","50 MW","solar","photovoltaic",,50,-100
"Windsor Solar Farm","Samsung Renewable Energy","50 MW","solar","photovoltaic",,50,-100
"Windsor Solar Project","Samsung Renewable Energy","50 MW","solar","photovoltaic",,50,-100
"[unnamed]","TransAlta","50 MW","hydro","water-storage",,50,-100
"Ashlu Creek Generating Station","Innergex","49.90 MW","hydro",,Q61375494,49.913889,-123.325
"Rutherford Creek",,"49.90 MW","hydro",,,50,-100
"Nutby Mountain Wind","Nova Scotia Power","49.50 MW","wind","wind_turbine",,50,-100
"Corra Linn Generating Station","FortisBC","49.00 MW","hydro","water-storage",,50,-100
"Silver Falls Generating Station","Ontario Power Generation","48.00 MW","hydro","water-storage",,50,-100
"Andrews Generating Station","Brookfield Renewable Energy","47.00 MW","hydro","run-of-the-river",,50,-100
"Oldman 2 Wind Farm","Apex Wind Energy","46.00 MW","wind",,,50,-100
"Lamèque Wind Farm","Acciona","45.00 MW","wind",,,50,-100
"Michipicoten High Falls Generation Station","Great Lakes Power","45.00 MW","hydro","water-storage",,50,-100
"Starwood Solar Sault Ste. Marie 2/3","KKR Global Infrastructure","45.00 MW","solar","photovoltaic",,50,-100
"Starwood Solar Sault Ste. Marie 2/3","KKR Global Infrastructure","45.00 MW","solar","photovoltaic",,50,-100
"Starwood Solar Sault Ste. Marie 2/3","KKR Global Infrastructure","45.00 MW","solar","photovoltaic",,50,-100
"Starwood Solar Sault Ste. Marie 2/3","KKR Global Infrastructure","45.00 MW","solar","photovoltaic",,50,-100
"Starwood Solar Sault Ste. Marie 2/3","KKR Global Infrastructure","45.00 MW","solar","photovoltaic",,50,-100
"Starwood Solar Sault Ste. Marie 2/3","KKR Global Infrastructure","45.00 MW","solar","photovoltaic",,50,-100
"Starwood Solar Sault Ste. Marie 2/3","KKR Global Infrastructure","45.00 MW","solar","photovoltaic",,50,-100
"Island Falls Generating Station","H2O Power","44.30 MW","hydro","run-of-the-river",,50,-100
"Castle River Wind Farm",,"44.00 MW","wind",,,50,-100
"Nanticoke Solar Farm","Ontario Power Generation;Six Nations of the Grand River Development Corporation;Mississaugas of the Credit First Nation","44.00 MW","solar","photovoltaic",,50,-100
"Invista Maitland",,"42.80 MW","gas",,,50,-100
"Parc éolien Le-Nordais","TransAlta","42.75 MW","wind",,,50,-100
"Burchill Wind Energy","Tobique First Nation Saint John Energy Natural Forces","42.00 MW","wind","wind_turbine",,50,-100
"Mersey Hydro","Nova Scotia Power","42.00 MW","hydro","water-storage",,50,-100
"Seton Powerhouse","BC Hydro","42.00 MW","hydro",,Q7456809,50.672806,-121.924
"Wrentham Solar Project","Solar Krafte","41.40 MW","solar","photovoltaic",,50,-100
"Meadow Lake Power Station","SaskPower","41.00 MW","gas","combustion",,50,-100
"Big Silver Creek",,"40.60 MW","hydro",,,50,-100
"Centrale de Magpie","Innergex","40.60 MW","hydro",,,50,-100
"Strathmore Solar Farm","Capital Power","40.50 MW","solar","photovoltaic",,50,-100
"Borden Generating Station","Maritime Electric","40.00 MW","oil","combustion",Q4944492,46.246667,-63.693056
"Granite Canal Hydroelectric Generating Station",,"40.00 MW","hydro",,Q5595835,48.190083,-56.808331
"Suncor Adelaide Wind Energy","Suncor Adelaide Wind Limited","40.00 MW","wind",,,50,-100
"Whitehorse Hydro Plant","Yukon Power","40.00 MW","hydro",,Q2058,60.717222,-135.055833
"Harrow Wind Farm","Engie Energy Internationa","39.60 MW","wind","wind_turbine",,50,-100
"Kingsbridge Wind Farm","Capital Power","39.60 MW","wind","wind_turbine",,50,-100
"Empress Solar",,"39.00 MW","solar","photovoltaic",,50,-100
"Deerfoot Solar Park","DP Energy","37.00 MW","solar","photovoltaic",,50,-100
"Cascade Hydro Power Plant","TransAlta Corporation","36.00 MW","hydro","water-storage",,50,-100
"Starwood Solar Sault Ste. Marie","EDF Renewables","35.00 MW","solar","photovoltaic",,50,-100
"Upper Stave River",,"33.50 MW","hydro",,,50,-100
"Stardale Solar Farm","Innergex","33.20 MW","solar","photovoltaic",,50,-100
"Clowhom Powerhouse",,"33.00 MW","hydro","water-storage",,50,-100
"Amherst I Wind Farm","Sprott Power Corporation","31.50 MW","wind","wind_turbine",,50,-100
"Pubnico Point Wind Energy Center","NextEra Energy Canada","30.60 MW","wind","wind_turbine",,50,-100
"Brooklyn Power","Emera Energy","30.00 MW","biomass","combustion",,50,-100
"Chin Chute Wind Farm","Acciona Energia","30.00 MW","wind",,,50,-100
"Cochrane Solar Farm","Northland Power","30.00 MW","solar","photovoltaic",,50,-100
"East Point Eastern Kings Wind Farm","PEI Energy Corporation","30.00 MW","wind","wind_turbine",,50,-100
"Hermanville Clear Spring Wind Development Wind Farm","PEI Energy Corporation","30.00 MW","wind","wind_turbine",,50,-100
"Irving Pulp and Paper",,"30.00 MW","biomass","combustion",,50,-100
"Liskeard Solar Projects","TransCanada Energy Ltd.","30.00 MW","solar","photovoltaic",,50,-100
"Magrath Wind Power Project","Suncor Energy","30.00 MW","wind",,,50,-100
"Grand Manan Power Station","NB Power","29.00 MW","oil","thermal",,50,-100
"Grand Manan Power Station","NB Power - Grand Manan","29.00 MW","oil","combustion",,50,-100
"Brooks Solar II Project","Elemental Energy","28.00 MW","solar","photovoltaic",,50,-100
"Chapais-Énergie","Nexolia","28.00 MW","biomass","combustion",,50,-100
"Peter Sutherland Sr. Generating Station",,"28.00 MW","hydro",,,50,-100
"Sissiboo Hydro","Nova Scotia Power","28.00 MW","hydro","water-storage",,50,-100
"Jackfish Lake Power Plant","Northwest Territories Power Corporation","27.66 MW","diesel","combustion",,50,-100
"Barlow Solar Park","DP Energy","27.00 MW","solar","photovoltaic",,50,-100
"Douglas Creek","Innergex Renewable Energy","27.00 MW","hydro",,,50,-100
"Fermeuse Wind Farm","Elemental Energy","27.00 MW","wind","wind_turbine",,50,-100
"Lamont Creek","Innergex","27.00 MW","hydro","run-of-the-river",,50,-100
"St. Lawrence Wind Farm","Elemental Energy","27.00 MW","wind","wind_turbine",,50,-100
"Red Lily Wind Power Facility","Algonquin Power and Utilities Corp.","26.00 MW","wind",,,50,-100
"Centrale hydroélectrique de Portneuf 1","Innergex","25.90 MW","hydro","run-of-the-river",,50,-100
"Boulder Creek Hydro",,"25.30 MW","hydro",,,50,-100
"AV Nackawic",,"25.00 MW","biomass","combustion",,50,-100
"Aménagement hydroélectrique Sheldrake","MRC de Minganie et Nation Innu d'Ekuanitshit","25.00 MW","hydro","run-of-the-river",,50,-100
"Kneehill Solar","Capstone Infrastructure","25.00 MW","solar","photovoltaic",,50,-100
"Michichi Solar","Capstone Infrastructure","25.00 MW","solar","photovoltaic",,50,-100
"Prairie Sunlight II Solar","Solar Krafte Utilities","25.00 MW","solar","photovoltaic",,50,-100
"Skookum Creek Powerhouse","Run of River Power","25.00 MW","hydro","water-storage",,50,-100
"Upper Mamquam","TransAlta","25.00 MW","hydro","run-of-the-river",,50,-100
"Whitecourt Power","Capstone","25.00 MW","biofuel","combustion",,50,-100
"Le Granit",,"24.60 MW","wind",,,50,-100
"Parc éolien La Mitis","MRC de la Mitis et EDF Énergies Nouvelles","24.60 MW","wind",,,50,-100
"Parc éolien Le plateau 2","Boralex et Régie intermunicipale de l’énergie Gaspésie-Îles-de-la-Madeleine","24.60 MW","wind",,,50,-100
"Parc éolien Viger-Denonville","MRC de Rivière-du-Loup et Innergex","24.60 MW","wind",,,50,-100
"Monarch Solar","Concord Monarch Partnership","24.00 MW","solar","photovoltaic",,50,-100
"Parc éolien communautaire de Frampton","Boralex","24.00 MW","wind",,,50,-100
"Parc éolien communautaire de Saint-Philémon","Parc éolien St-Philémon S.E.C.","24.00 MW","wind",,Q117604157,46.6655,-70.364306
"Point Tupper Wind","Enercon Canada","24.00 MW","wind","wind_turbine",,50,-100
"Puntledge River Generating Station",,"24.00 MW","hydro","run-of-the-river",,50,-100
"St. Isidore","EDF Renewables","24.00 MW","solar","photovoltaic",,50,-100
"Tusket Combustion Turbine","Nova Scotia Power","24.00 MW","diesel","combustion",,50,-100
"Parc éolien Saint-Damase","Innergex","23.50 MW","wind",,,50,-100
"Arnprior Solar Project","EDF Renewables","23.40 MW","solar","photovoltaic",Q4795407,45.408306,-76.275
"Centrale Hydro-Canyon Saint-Joachim","Société Hydro-Canyon Saint-Joachim","23.20 MW","hydro","run-of-the-river",,50,-100
"Ellershouse Wind Farm","Alternative Resource Energy Authority","23.15 MW","wind","wind_turbine",,50,-100
"Black River Hydro","Nova Scotia Power","23.00 MW","hydro","water-storage",,50,-100
"Coaldale Solar","Concord Coaldale Partnership","23.00 MW","solar","photovoltaic",,50,-100
"DeCew I Generating Station","Ontario Power Generation","23.00 MW","hydro","run-of-the-river",,50,-100
"Fire Creek","Innergex Renewable Energy","23.00 MW","hydro",,,50,-100
"Gartshore Generating Station","Brookfield Renewable Energy","23.00 MW","hydro","water-storage",,50,-100
"Hays Solar","Canadian Solar","23.00 MW","solar","photovoltaic",,50,-100
"Jenner Solar","Canadian Solar","23.00 MW","solar","photovoltaic",,50,-100
"Morse Wind Power Facility","SaskPower","23.00 MW","wind",,,50,-100
"Solar Sault Ste. Marie","First Solar","23.00 MW","solar","photovoltaic",,50,-100
"Suffield Solar Facility","BluEarth Renewables","23.00 MW","solar","photovoltaic",,50,-100
"Aishihik Hydro Plant","Yukon Energy Corporation","22.00 MW","hydro","run-of-the-river",,50,-100
"Ear Falls Generating Station","Ontario Power Generation","22.00 MW","hydro","run-of-the-river",,50,-100
"Fundy Ocean Research Center for Energy","Fundy Ocean Research Centre for Energy","22.00 MW","tidal","stream",,50,-100
"Innisfail Solar","Elemental Energy","22.00 MW","solar","photovoltaic",,50,-100
"Metro Vancouver Waste-to-Energy Facility","Covanta","22.00 MW","waste","combustion",,50,-100
"Prairie Sunlight III Solar","Solar Krafte Utilities","22.00 MW","solar","photovoltaic",,50,-100
"Stokke Creek","Innergex","22.00 MW","hydro","run-of-the-river",,50,-100
"Vulcan Solar",,"22.00 MW","solar",,,50,-100
"Zeballos Power Plant","Kruger","21.85 MW","hydro",,Q57514952,50.053486,-126.779817
"Centrale des Sept-Chutes","Hydro-Québec","21.60 MW","hydro","run-of-the-river",,50,-100
"Summerside Sunbank","City of Summerside","21.60 MW","solar","photovoltaic",,50,-100
"Tretheway Creek","Innergex","21.20 MW","hydro","run-of-the-river",,50,-100
"Centrale du lac-Robertson","Hydro-Québec","21.00 MW","hydro",,Q2944526,51,-59.06
"Summerside Sunbank","City of Summerside","21.00 MW","solar","photovoltaic",,50,-100
"East Strathmore Solar Project","Elemental Energy","20.50 MW","solar","photovoltaic",,50,-100
"Abw Solar Belmont","First Solar","20.00 MW","solar","photovoltaic",,50,-100
"Abw Solar Belmont","First Solar","20.00 MW","solar","photovoltaic",,50,-100
"Abw Solar Walpole","First Solar","20.00 MW","solar","photovoltaic",,50,-100
"Amherstburg Solar","Capstone Infrastructure","20.00 MW","solar","photovoltaic",,50,-100
"Amherstburg Solar Park","Capstone","20.00 MW","solar","photovoltaic",,50,-100
"Burdett Solar","BluEarth Renewables","20.00 MW","solar","photovoltaic",,50,-100
"Cowley North Wind Farm","TransAlta Renewables","20.00 MW","wind",,,50,-100
"Greenhill Gas Turbine","Newfoundland Power","20.00 MW","gas","combustion",,50,-100
"Moore Solar","NextEra Energy Canadian Operating Services","20.00 MW","solar","photovoltaic",,50,-100
"Ranney Falls Generating Station","Ontario Power Generation","20.00 MW","hydro","run-of-the-river",,50,-100
"Sombra Solar Energy Centre","NextEra Energy Canadian Operating Services","20.00 MW","solar","photovoltaic",,50,-100
"Western Lily Wind Power Facility","Gaia Power, Inc.","20.00 MW","wind",,,50,-100
"Bone Creek",,"19.00 MW","hydro",,,50,-100
"Hogg Generating Station","Brookfield Renewable Energy","19.00 MW","hydro","run-of-the-river",,50,-100
"Kananaskis Plant","TransAlta","19.00 MW","hydro","run-of-the-river",,50,-100
"Yellow Lake Solar","BluEarth Renewables","19.00 MW","solar","photovoltaic",,50,-100
"Star Lake Hydroelectric Generating Station","Enel Green Power, Newfoundland and Labrador Hydro","18.40 MW","hydro",,,50,-100
"Mini-centrale de la 11e chute","Énergie hydroélectrique Mistassini","18.30 MW","hydro","run-of-the-river",,50,-100
"Bésy","Resolute Forest Products","18.00 MW","hydro","run-of-the-river",,50,-100
"Healey Falls Hydroelectric","Ontario Power Generation","18.00 MW","hydro","water-storage",,50,-100
"Taltson Hydroelectric Power Plant","Northwest Territories Power Corporation","18.00 MW","hydro","run-of-the-river",,50,-100
"Tipella Creek",,"18.00 MW","hydro","run-of-the-river",,50,-100
"Ganaraska Wind Farm",,"17.60 MW","wind",,,50,-100
"Durham York Energy Centre","Regional Municipalities Of Durham And York","17.50 MW","waste","combustion",,50,-100
"Northwest Stave River",,"17.50 MW","hydro",,,50,-100
"Menihek Hydroelectric Generating Station","Newfoundland and Labrador Hydro","17.20 MW","hydro","run-of-the-river",,50,-100
"Stavely Solar Farm",,"17.00 MW","solar","photovoltaic",,50,-100
"Centrale de Drummondville - Barrage de Drummondville",,"16.00 MW","hydro",,Q2944470,45.886944,-72.483889
"Long Sault Rapids Generating Station","Algonquin Power","16.00 MW","hydro","run-of-the-river",,50,-100
"Sechelt Creek Generating Station",,"16.00 MW","hydro",,,50,-100
"Volcano Creek Hydroelectric Project","Coast Mountain Hydro","16.00 MW","hydro","run-of-the-river",,50,-100
"Volcano Creek Hydroelectric Project",,"16.00 MW","hydro",,,50,-100
"[unnamed]","Innergex","16.00 MW","hydro",,,50,-100
"Amherstburg II","Enbridge","15.00 MW","solar","photovoltaic",,50,-100
"Brooks Solar 1","Elemental Energy","15.00 MW","solar","photovoltaic",,50,-100
"Centrale de Saint-Narcisse","Hydro-Québec","15.00 MW","hydro","run-of-the-river",Q2944486,46.55,-72.41
"Dickson Dam","Algonquin Power","15.00 MW","hydro",,,50,-100
"Pennask Wind Farm",,"15.00 MW","wind","wind_turbine",,50,-100
"St. George Dam","St. George Power","15.00 MW","hydro","run-of-the-river",,50,-100
"Ocean Falls",,"14.50 MW","hydro","water-storage",,50,-100
"Chute-aux-Galets","Resolute Forest Products","14.40 MW","hydro","run-of-the-river",Q113378366,48.651667,-71.203333
"Chappice Lake Solar-Storage Project","Elemental Energy","14.00 MW","solar","photovoltaic",,50,-100
"Horseshoe Plant","TransAlta","14.00 MW","hydro","run-of-the-river",,50,-100
"Lower Sturgeon Falls Hydroelectric Generating Station",,"14.00 MW","hydro","run-of-the-river",Q11986882,48.808611,-81.493056
"Sable Wind","Municipality of the District of Guysborough","13.80 MW","wind","wind_turbine",,50,-100
"Bull Creek",,"13.60 MW","wind",,,50,-100
"Iqaluit","Qulliq Energy Corporation","13.60 MW","diesel","combustion",,50,-100
"kīsikāw pīsim Solar Farm","EPCOR","13.50 MW","solar","photovoltaic",,50,-100
"Fort Frances Generating Station","H2O Power","13.10 MW","hydro","run-of-the-river",,50,-100
"Harris Generating Station",,"13.00 MW","hydro",,,50,-100
"Michichi Creek Solar Farm","Concord Green Energy","13.00 MW","solar","photovoltaic",,50,-100
"Smiths Falls 2 Solar Facility","Recurrent Energy","13.00 MW","solar","photovoltaic",,50,-100
"Smiths Falls 5 Solar Facility","Recurrent Energy","13.00 MW","solar","photovoltaic",,50,-100
"Smiths Falls 6 Solar Facility","Recurrent Energy","13.00 MW","solar","photovoltaic",,50,-100
"Beckwith Solar","EffiSolar Energy, Engie Energy Services International and Mitsui. Engie Energy Services International","12.70 MW","solar","photovoltaic",,50,-100
"Parkway Solar","GS One-Parkway Solar Farm LP","12.70 MW","solar","photovoltaic",,50,-100
"Elmsley Solar East","EDF Renewables","12.00 MW","solar","photovoltaic",,50,-100
"Elmsley Solar West","EDF Renewables","12.00 MW","solar","photovoltaic",,50,-100
"Saint Isidore Solar","EDF Renewables","12.00 MW","solar","photovoltaic",,50,-100
"Summerside Diesel Generation Plant","Summerside Electric","12.00 MW","diesel","combustion",,50,-100
"Summerside Wind Farm","Summerside Electric","12.00 MW","wind","wind_turbine",,50,-100
"[unnamed]","TransAlta","12.00 MW","hydro","water-storage",,50,-100
"Bear River Hydro","Nova Scotia Power","11.50 MW","hydro","water-storage",,50,-100
"Oro-Medonte Solar Farm","BlackRock","11.50 MW","solar","photovoltaic",,50,-100
"Cypress Wind Power Facility","SaskPower","11.00 MW","wind",,,50,-100
"Lequille Hydroelectric Power Station","Nova Scotia Power","11.00 MW","hydro","water-storage",,50,-100
"Nepisiguit Falls Generating Station","NB Power","11.00 MW","hydro","run-of-the-river",,50,-100
"St. Margaret's Bay Hydroelectric System","Nova Scotia Power","11.00 MW","hydro","water-storage",,50,-100
"Stone Mills","DIF Infrastructure","11.00 MW","solar","photovoltaic",,50,-100
"W.R. Beatty Generating Station","Brookfield Renewable Power","11.00 MW","hydro","run-of-the-river",,50,-100
"Fort William","SkyPower","10.90 MW","solar","photovoltaic",,50,-100
"North Cape Wind Farm","PEI Energy Corporation","10.56 MW","wind","wind_turbine",,50,-100
"Alberta Solar One","Enbridge, Morgan Solar Inc","10.50 MW","solar","photovoltaic",,50,-100
"Mobile Hydro Plant","Newfoundland Power","10.50 MW","hydro","water-storage",,50,-100
"First Light 2","SunEdison / Sky Power","10.40 MW","solar","photovoltaic",,50,-100
"Sandspit Power Plant","BC Hydro","10.20 MW","diesel","combustion",,50,-100
"Adelaide Solar Power Plant","Recurrent Energy","10.00 MW","solar","photovoltaic",,50,-100
"Alfred Solar Energy Project","SunE Alfred LP (SunEdison) formerly 2225049 Ontario Inc.","10.00 MW","solar","photovoltaic",,50,-100
"Barlow Solar","EDF Renewables","10.00 MW","solar","photovoltaic",,50,-100
"Beamlight Solar Project","Concorde","10.00 MW","solar","photovoltaic",,50,-100
"Belleville North Generating Station","Northland Power","10.00 MW","solar","photovoltaic",,50,-100
"Belleville South Generating Station","Northland Power","10.00 MW","solar","photovoltaic",,50,-100
"Belleville TS Demorestville Solar Energy Project","2225051 Ontario Inc. (also Axio Power and SunEdison)","10.00 MW","solar","photovoltaic",,50,-100
"Big Chute Hydro-Electric Generating Station","Ontario Power Generation","10.00 MW","hydro","run-of-the-river",,50,-100
"Breen 2","Recurrent Energy","10.00 MW","solar","photovoltaic",,50,-100
"Breen 2","Recurrent Energy","10.00 MW","solar","photovoltaic",,50,-100
"Brockville 1 Solar Facility","Axium Infinity Solar","10.00 MW","solar","photovoltaic",,50,-100
"Brockville Solar Farm","EffiSolar","10.00 MW","solar","photovoltaic",,50,-100
"Burk's Falls East Solar Project","Northland Power","10.00 MW","solar","photovoltaic",,50,-100
"Burk's Falls West Solar Project","Northland Power","10.00 MW","solar","photovoltaic",,50,-100
"Central Utilities","York University","10.00 MW","gas","combustion",,50,-100
"Charlot River Power Station","SaskPower","10.00 MW","hydro","water-storage",,50,-100
"Chebucto Pockwock","Pockwock Wind Limited Partnership","10.00 MW","wind","wind_turbine",,50,-100
"CityLights Solar Farm","Renewable Energy Trust Capital Inc.","10.00 MW","solar","photovoltaic",,50,-100
"Cornwall Solar","Algonquin Power","10.00 MW","solar","photovoltaic",,50,-100
"Crosby Generating Station","Northland Power","10.00 MW","solar",,,50,-100
"Dave Rampel Solar Farm","Rainy River First Nations","10.00 MW","solar","photovoltaic",,50,-100
"David Brown Solar Park","Saturn Power Inc.","10.00 MW","solar","photovoltaic",,50,-100
"DiscoveryLight","DiscoveryLightLP (aka Canadian Solar Solutions Inc.)","10.00 MW","solar","photovoltaic",,50,-100
"EarthLight Solar Farm","EarthLight LP (Canadian Solar)","10.00 MW","solar","photovoltaic",,50,-100
"EarthLight Solar Farm","EarthLight LP (Canadian Solar)","10.00 MW","solar","photovoltaic",,50,-100
"EarthLight Solar Farm","EarthLight LP (Canadian Solar)","10.00 MW","solar","photovoltaic",,50,-100
"Edwardsburgh Morrisburg Solar Project","Penn Energy Renewables, Ltd","10.00 MW","solar","photovoltaic",,50,-100
"Erie Ridge Solar Field",,"10.00 MW","solar","photovoltaic",,50,-100
"Ernestown Wind Farm","Horizon Legacy","10.00 MW","wind","wind_turbine",,50,-100
"FotoLight Solar Farm","Renewable Energy Trust Capital Inc.","10.00 MW","solar","photovoltaic",,50,-100
"Gesner Wind Farm","Saturn Power","10.00 MW","wind","wind_turbine",,50,-100
"Glenarm Solar Farm","DIF Infrastructure","10.00 MW","solar","photovoltaic",,50,-100
"Glendale Solar Project","Northland Power Inc.","10.00 MW","solar","photovoltaic",,50,-100
"GoldLight Solar Project","GoldLight LP (Canadian Solar)","10.00 MW","solar","photovoltaic",,50,-100
"GoodLight Solar Project","BluEarth Renewables","10.00 MW","solar","photovoltaic",,50,-100
"GoodLight Solar Project","BluEarth Renewables","10.00 MW","solar","photovoltaic",,50,-100
"Hamilton (Port Hope 4) Solar Facility","Penn Energy","10.00 MW","solar","photovoltaic",,50,-100
"Hamilton (Port Hope 4) Solar Facility","Penn Energy","10.00 MW","solar","photovoltaic",,50,-100
"Highfield Solar Facility","Saturn Power","10.00 MW","solar","photovoltaic",,50,-100
"Highlight Solar Project","CSI GP Val Caron Ltd. (Canadian Solar)","10.00 MW","solar","photovoltaic",,50,-100
"Illumination","Illumination LP (Canadian Solar)","10.00 MW","solar","photovoltaic",,50,-100
"Kingston Gardiner TS Odessa Solar Project","Axio Power and SunEdison","10.00 MW","solar","photovoltaic",,50,-100
"Kingston Gardiner TS Unity Road Solar Project","SunEdison","10.00 MW","solar","photovoltaic",,50,-100
"Lily Lake","Peterborough Utilities Inc.","10.00 MW","solar","photovoltaic",,50,-100
"Lindsay Solar Farm","Perpetual Energy Systems, LLC","10.00 MW","solar","photovoltaic",,50,-100
"Little Creek Solar Project","Canadian Solar","10.00 MW","solar","photovoltaic",,50,-100
"Longueuil TS Malbouef",,"10.00 MW","solar","photovoltaic",,50,-100
"LunarLight Solar Farm","Renewable Energy Trust Capital Inc.","10.00 MW","solar","photovoltaic",,50,-100
"Marsh Hill Solar Farm","2327461 Ontario Inc.","10.00 MW","solar","photovoltaic",,50,-100
"Matabitchuan Generating Station","Ontario Power Generation","10.00 MW","hydro","water-storage",,50,-100
"Mattawiskwia Solar Project","Ontario Solar PV Fields","10.00 MW","solar","photovoltaic",,50,-100
"Mattawiskwia Solar Project","Ontario Solar PV Fields","10.00 MW","solar","photovoltaic",,50,-100
"Mayo B Hydro Plant","Yukon Energy","10.00 MW","hydro","run-of-the-river",,50,-100
"McCann Solar Project","Northland Power Inc.","10.00 MW","solar","photovoltaic",,50,-100
"Mighty Solar Project","Concord Green Energy","10.00 MW","solar","photovoltaic",,50,-100
"Millbrook/Truro Heights Community Wind","Millbrook First Nation wi Wind Canada","10.00 MW","wind","wind_turbine",,50,-100
"Mississippi Mills Solar Park","Canadian Solar","10.00 MW","solar",,,50,-100
"Morley Solar Farm","Rainy River First Nations","10.00 MW","solar","photovoltaic",,50,-100
"Newboro 1","SunEdison","10.00 MW","solar",,,50,-100
"Newsboro 4","SunEdison","10.00 MW","solar",,,50,-100
"Norfolk-Bloomsburg TS Solar Project","2225050 Ontario Inc. (c/o Axio Power)","10.00 MW","solar",,,50,-100
"North Burgess Generating Station","Northland Power","10.00 MW","solar","photovoltaic",,50,-100
"Northland Power Long Lakes Solar Project","Northland Power Solar Long Lakes Inc. operating as Northland Power Solar Long Lake L.P.","10.00 MW","solar","photovoltaic",,50,-100
"Okikendawt Hydroelectric Project","Dokis First Nation","10.00 MW","hydro","run-of-the-river",,50,-100
"Orillia 2","Recurrent Energy","10.00 MW","solar","photovoltaic",,50,-100
"Penn Energy - Van Dorp Solar Projects","Port Hope Solar Farm Partnership","10.00 MW","solar","photovoltaic",,50,-100
"RayLight Solar Park","RayLight LP (aka Canadian Solar)","10.00 MW","solar","photovoltaic",,50,-100
"Rideau Lakes Generating Station","Northland Power","10.00 MW","solar",,,50,-100
"Sandhurst Shores Solar Farm","SunEdison","10.00 MW","solar","photovoltaic",,50,-100
"Silvercreek Solar Park","Silvercreek Solar Park","10.00 MW","solar","photovoltaic",,50,-100
"Simcoe Solar Energy Centre 1","TerraForm Power","10.00 MW","solar","photovoltaic",,50,-100
"Simcoe Solar Energy Centre 3","TerraForm Power","10.00 MW","solar","photovoltaic",,50,-100
"Smiths Falls 4 Solar Facility","Recurrent Energy","10.00 MW","solar","photovoltaic",,50,-100
"Snare Forks Hydroelectric Power Station","Northwest Territories Power Corporation","10.00 MW","hydro","run-of-the-river",,50,-100
"Solar Spirit 4 Solar Farm","2224375 Ontario Inc. (SunEdison)","10.00 MW","solar","photovoltaic",,50,-100
"Solar Spirit 4 Solar Farm","2224375 Ontario Inc. (SunEdison)","10.00 MW","solar","photovoltaic",,50,-100
"Solar Spirit 4 Solar Farm","2224375 Ontario Inc. (SunEdison)","10.00 MW","solar","photovoltaic",,50,-100
"Solar Spirit 4 Solar Farm","2224375 Ontario Inc. (SunEdison)","10.00 MW","solar","photovoltaic",,50,-100
"South Glengarry Solar Project","Penn Energy","10.00 MW","solar","photovoltaic",,50,-100
"SparkleLight Solar Farm","BluEarth Renewables","10.00 MW","solar","photovoltaic",,50,-100
"SunE Rutley Solar Farm","SunEdison","10.00 MW","solar","photovoltaic",,50,-100
"SunE Rutley Solar Farm","SunEdison","10.00 MW","solar","photovoltaic",,50,-100
"SunEdison Bruining 1 Solar Project","SunE South Stormont GP Corp. (SunEdison)","10.00 MW","solar","photovoltaic",,50,-100
"Sunderland Solar Farm","2327049 Ontario Inc. Solray","10.00 MW","solar","photovoltaic",,50,-100
"Sunny Shores Solar Project (Glen Manor)","Spark Solar","10.00 MW","solar","photovoltaic",,50,-100
"Sunny Shores Solar Project (Glen Manor)","Spark Solar","10.00 MW","solar","photovoltaic",,50,-100
"WEICan R&D Park Wind Farm","Wind Energy Institute of Canada","10.00 MW","wind","wind_turbine",,50,-100
"Wainright Solar Park","Ontario Solar PV Fields 1LP","10.00 MW","solar","photovoltaic",,50,-100
"Welland Ridge Road Solar Project","SunE Welland Ridge GP Corp. operating as SunE Welland Ridge LP","10.00 MW","solar","photovoltaic",,50,-100
"Welland Ridge Road Solar Project","SunE Welland Ridge GP Corp. operating as SunE Welland Ridge LP","10.00 MW","solar","photovoltaic",,50,-100
"WindCharger Battery Storage","TransAlta","10.00 MW","battery",,,50,-100
"York University Power Station",,"10.00 MW","gas","combustion",,50,-100
"Zephyr (Watford)","Zephyr Corporation","10.00 MW","wind","wind_turbine",,50,-100
"Clear Creek Wind Farm",,"9.90 MW","wind","wind_turbine",,50,-100
"Mohawk Point Wind Farm",,"9.90 MW","wind","wind_turbine",,50,-100
"13th Side Road Solar Power Plant","Skypower","9.50 MW","solar","photovoltaic",,50,-100
"13th Side Road Solar Power Plant","Skypower","9.50 MW","solar","photovoltaic",,50,-100
"Ingersoll 1","Recurrent Energy","9.50 MW","solar","photovoltaic",,50,-100
"Ingersoll 1","Recurrent Energy","9.50 MW","solar","photovoltaic",,50,-100
"Ingersoll 1","Recurrent Energy","9.50 MW","solar","photovoltaic",,50,-100
"Ingersoll 1","Recurrent Energy","9.50 MW","solar","photovoltaic",,50,-100
"Ingersoll 1","Recurrent Energy","9.50 MW","solar","photovoltaic",,50,-100
"Ingersoll 1","Recurrent Energy","9.50 MW","solar","photovoltaic",,50,-100
"Ingersoll 1","Recurrent Energy","9.50 MW","solar","photovoltaic",,50,-100
"[unnamed]",,"9.30 MW","hydro","run-of-the-river",,50,-100
"Aulds Mountain Wind Farm","Natural Forces","9.20 MW","wind","wind_turbine",,50,-100
"Diavik Wind Farm","Diavik Diamond Mine Inc.","9.20 MW","wind",,,50,-100
"First Light 1","SunEdison / Sky Power","9.10 MW","solar","photovoltaic",,50,-100
"Ryerse","SkyPower","9.10 MW","solar",,,50,-100
"Aria Solar","Canadian Solar","9.00 MW","solar","photovoltaic",,50,-100
"Brockville 2 Solar Facility","Axium Infinity Solar","9.00 MW","solar","photovoltaic",,50,-100
"Norway Wind Park Wind Farm","Engie","9.00 MW","wind","wind_turbine",,50,-100
"Sisson Generating Station","NB Power","9.00 MW","hydro","run-of-the-river",,50,-100
"Centrale Franquelin","Société d'énergie rivière Franquelin","8.80 MW","hydro","water-storage",,50,-100
"Centrale hydroélectrique de Portneuf 3","Innergex","8.65 MW","hydro","run-of-the-river",,50,-100
"Faro Diesel Facility","Yukon Energy","8.50 MW","diesel","combustion",,50,-100
"Snare Rapids Hydro Plant","Northwest Territories Power Corporation","8.50 MW","hydro","run-of-the-river",,50,-100
"Thunder Bay Airport Solar Farm","SkyPower","8.50 MW","solar","photovoltaic",,50,-100
"Horsechops Plant","Newfoundland Power","8.13 MW","hydro","water-storage",,50,-100
"L'Anse au Loup","Newfoundland and Labrador Hydro","8.05 MW","diesel","combustion",,50,-100
"Alouette Lake Generating Station","BC Hydro","8.00 MW","hydro","water-storage",,50,-100
"Big Eddy Generating Station","Ontario Power Generation","8.00 MW","hydro","run-of-the-river",,50,-100
"Central Utilities Building","Brock University","8.00 MW","gas","combustion",,50,-100
"Centrale solaire Gabrielle-Bodis","Hydro-Québec","8.00 MW","solar","photovoltaic",,50,-100
"Crystal Falls Generating Station",,"8.00 MW","hydro",,,50,-100
"Glen Mills Generating Station","Innergex","8.00 MW","hydro","run-of-the-river",,50,-100
"Inuvik Power Plant","Northwest Territories Power Corporation","8.00 MW","gas","combustion",,50,-100
"North Beaver Bank","Scotian Wind","8.00 MW","wind","wind_turbine",,50,-100
"Paradise River Hydroelectric Generating Station","Newfoundland and Labrador Hydro","8.00 MW","hydro","run-of-the-river",,50,-100
"Penn Energy - Brantgate Solar Project","Penn Energy Renewables Ltd.","8.00 MW","solar","photovoltaic",,50,-100
"Penn Energy - Ridgefield Solar Project","Ridgefield Solar Farm Partnership","8.00 MW","solar","photovoltaic",,50,-100
"Ramore Solar Project","Ontario Solar PV Fields","8.00 MW","solar","photovoltaic",,50,-100
"Ramore Solar Project","Ontario Solar PV Fields","8.00 MW","solar","photovoltaic",,50,-100
"Sturgeon Falls Generating Station","West Nipissing Power Generation","8.00 MW","hydro","run-of-the-river",,50,-100
"Swift Rapids Generating Station","Ontario Power Generation","8.00 MW","hydro",,,50,-100
"Walter Hardman Generating Station","BC Hydro","8.00 MW","hydro","water-storage",,50,-100
"Waterloo Power Station","SaskPower","8.00 MW","hydro","water-storage",,50,-100
"Waubaushene 4","Recurrent Energy","8.00 MW","solar","photovoltaic",,50,-100
"Wesleyville Gas Turbine",,"8.00 MW","gas","combustion",,50,-100
"St. Anthony Diesel Power Station","Newfoundland and Labrador Hydro","7.70 MW","diesel","combustion",,50,-100
"Drummondville","Waste Managemrnt","7.60 MW","biogas","combustion",,50,-100
"Bluefish Hydro","Northwest Territories Power Corporation","7.50 MW","hydro",,,50,-100
"Fitzsimmons Creek Hydroelectric Project","Innergex","7.50 MW","hydro","run-of-the-river",,50,-100
"Maxim Cogeneration Powerhouse","Maxim Power Corporation","7.40 MW","gas","combustion",,50,-100
"Snare Falls","Northwest Territories Power Corporation","7.40 MW","hydro","run-of-the-river",,50,-100
"Centrale Lefrançois","Innergex inc.","7.20 MW","hydro","run-of-the-river",,50,-100
"Chebucto Terence Bay Wind Farm","Chebucto Terence Bay Wind Farm","7.20 MW","wind","wind_turbine",,50,-100
"Avon","Nova Scotia Power","7.00 MW","hydro","water-storage",,50,-100
"Burritts Rapids Solar Farm","Canadian Solar","7.00 MW","solar","photovoltaic",,50,-100
"Nictaux Falls","Nove Scotia Power","7.00 MW","hydro","water-storage",,50,-100
"Sunningdale 1 Solar Energy Project","RE Sunningdale 1 ULC","7.00 MW","solar","photovoltaic",,50,-100
"Sunningdale 1 Solar Energy Project","RE Sunningdale 1 ULC","7.00 MW","solar","photovoltaic",,50,-100
"Dawson Diesel Facility","Yukon Energy Corporation","6.50 MW","oil","combustion",,50,-100
"Heywood Generating Station.","St. Catharines Hydro Generation","6.50 MW","hydro","run-of-the-river",,50,-100
"Midhurst 4","Recurrent Energy","6.50 MW","solar","photovoltaic",,50,-100
"Orillia 3","Recurrent Energy","6.50 MW","solar","photovoltaic",,50,-100
"Orillia 3 Solar","Orillia 3 ULC","6.50 MW","solar","photovoltaic",,50,-100
"Roseplain Solar Farm","Roseplain General Partner 1 Inc. Roseplain General Partner 2 Inc. operating as Roseplain Solar Farm Partnership (Penn Energy)","6.50 MW","solar","photovoltaic",,50,-100
"Sinnott Wind Farm","TransAlta Renewables","6.50 MW","wind",,,50,-100
"Smiths Falls 3 Solar Facility","Recurrent Energy","6.50 MW","solar","photovoltaic",,50,-100
"[unnamed]","Newfoundland Power","6.50 MW","hydro","water-storage",,50,-100
"Dune-du-Nord","Intermunicipal board Gaspésie Magdalen Islands","6.40 MW","wind","wind_turbine",,50,-100
"Cape Broyle Generating Station","Newfoundland Power","6.28 MW","hydro","water-storage",,50,-100
"Paradise Hydroelectric","Nova Scotia Power","6.20 MW","hydro","water-storage",,50,-100
"Kuujjuaq Power Plant","Hydro-Québec","6.01 MW","diesel","combustion",,50,-100
"Amherst Community Wind","Natural Forces","6.00 MW","wind","wind_turbine",,50,-100
"Doran Taylor Hydro","Summit Power","6.00 MW","hydro","water-storage",,50,-100
"Elmsdale Battey Storage","Nova Scotia Power","6.00 MW","battery",,,50,-100
"Hardwood Lands Community Wind Farm","Scotian Wind","6.00 MW","wind","wind_turbine",,50,-100
"Kap Solar Project","Ontario Solar PV Fields","6.00 MW","solar","photovoltaic",,50,-100
"Mahone Bay Solar Plant","Town of Mahone Bay","6.00 MW","solar","photovoltaic",,50,-100
"Martock Ridge Wind Farm",,"6.00 MW","wind","wind_turbine",,50,-100
"Maryvale Wind","Maryvale Wind","6.00 MW","wind","wind_turbine",,50,-100
"Moresby Lake IPP",,"6.00 MW","hydro",,,50,-100
"Raglan Mine",,"6.00 MW","wind","wind_turbine",,50,-100
"Seymour Generating Station","Peterborough Utilities","6.00 MW","hydro","run-of-the-river",,50,-100
"Smiths Falls 1 Solar Facility","Recurrent Energy","6.00 MW","solar","photovoltaic",,50,-100
"Lookout Brook Hydro Plant","Newfoundland Power","5.80 MW","hydro","water-storage",,50,-100
"Sakwi Creek Hydro Project","CC&L Infrastructure;WindRiver Power Corporation","5.50 MW","hydro","run-of-the-river",,50,-100
"Centrale McDougall","R.S.P. Énergie inc.","5.40 MW","hydro","run-of-the-river",,50,-100
"Madawaska Hydro-Dam Fraser Plant","Edmundston Energy","5.30 MW","hydro","run-of-the-river",,50,-100
"Petty Harbour Generating Station","Newfoundland Power","5.30 MW","hydro","water-storage",,50,-100
"Alderville First Nation Solar Facility","Alderville First Nation","5.00 MW","solar","photovoltaic",,50,-100
"Centrale électrique",,"5.00 MW","biomass",,,50,-100
"Enbridge Tilbury","Enbridge Income Fund","5.00 MW","solar","photovoltaic",,50,-100
"Hawke's Bay",,"5.00 MW","diesel","combustion",,50,-100
"Kemptown Wind Farm","Affinity Wind LP","5.00 MW","wind","wind_turbine",,50,-100
"Laurie River Generating Station",,"5.00 MW","hydro",,,50,-100
"Laurie River Generating Station Two",,"5.00 MW","hydro",,,50,-100
"Malay Falls Hydroelectric Plant","Nova Scotia Power","5.00 MW","hydro","water-storage",,50,-100
"Mayo A Hydro Plant","Yukun Energy","5.00 MW","hydro","water-storage",,50,-100
"Mayo Generating Facility","Yukon Energy Corporation","5.00 MW","hydro",,,50,-100
"NRGreen Loreburn Heat Recovery Facility","NRGreen Power Limited Partnership","5.00 MW","gas","thermal",,50,-100
"Ruth Falls Hydro Station","Nova Scotia Power","5.00 MW","hydro","water-storage",,50,-100
"St. Croix Hydro","Minas Energy","5.00 MW","hydro","run-of-the-river",,50,-100
"Vanzwolf Solar Farm","Rainy River First Nations","5.00 MW","solar","photovoltaic",,50,-100
"Waubaushene 5","Recurrent Energy","5.00 MW","solar","photovoltaic",,50,-100
"Wellington Power Station","SaskPower","5.00 MW","hydro","water-storage",,50,-100
"Limerock Wind","Affinity Wind","4.99 MW","wind","wind_turbine",,50,-100
"Blanc-Sablon","Hydro-Québec","4.90 MW","diesel","combustion",,50,-100
"Centrale Blanc-Sablon","Hydro-Québec","4.90 MW","diesel","combustion",,50,-100
"Minicentrale Thibaudeau-Ricard","Shipiss Inc.","4.90 MW","hydro",,,50,-100
"Berwick Solar Garden","Alternative Resource Energy Authority","4.80 MW","solar","photovoltaic",,50,-100
"Centrale de Donnacona","Société Hydro Donnacona, S.E.N.C","4.80 MW","hydro","run-of-the-river",,50,-100
"Barrachois Community Wind Farm","Natural Forces Wind","4.70 MW","wind","wind_turbine",,50,-100
"Cameron Falls","Evolugen","4.70 MW","hydro","run-of-the-river",,50,-100
"Brian J. Gallagher Generating Station","Mississippi River Power Corporation","4.60 MW","hydro","run-of-the-river",,50,-100
"Fairmont Wind Project","Wind4All","4.60 MW","wind","wind_turbine",,50,-100
"Ketch Harbour Wind Power Project",,"4.60 MW","wind","wind_turbine",,50,-100
"North Power House","McGill University","4.50 MW","gas","combustion",,50,-100
"Snare Cascades Hydro Plant","Northwest Territories Power Corporation","4.30 MW","hydro","run-of-the-river",,50,-100
"London Street Generating Station","Peterborough Utilties","4.10 MW","hydro","run-of-the-river",,50,-100
"Napier Wind Farm","wpd Canada","4.10 MW","wind",,,50,-100
"Site nordique expérimental CORUS",,"4.10 MW","wind","wind_turbine",,50,-100
"Hagues Reach Generating Station","Ontario Power Generation","4.00 MW","hydro","run-of-the-river",,50,-100
"Hillside Boularderie Wind","Natural Forces","4.00 MW","wind","wind_turbine",,50,-100
"Hound Chutes","Ontario Power Generation","4.00 MW","hydro","run-of-the-river",,50,-100
"Nine Mile River Wind","Scotian Wind","4.00 MW","wind","wind_turbine",,50,-100
"Sidney","Ontario Power Generation","4.00 MW","hydro","run-of-the-river",,50,-100
"Whynotts Wind","Whynotts Wind Limited","4.00 MW","wind","wind_turbine",,50,-100
"Natuashish","Mushuau Innu First Nation","4.00 MW","diesel","combustion",,50,-100
"Stan Adamson Power House",,"3.90 MW","hydro",,,50,-100
"Nain Power Plant","Newfoundland and Labrador Hydro","3.76 MW","diesel","combustion",,50,-100
"New Chelsea","Newfoundland Power","3.70 MW","hydro","water-storage",,50,-100
"Higgins Mountain Wind","Sprott Power Corporation","3.60 MW","wind","wind_turbine",,50,-100
"Liverpool Wind Energy Storage","Watts Wind Energy","3.60 MW","wind","wind_turbine",,50,-100
"Springhill Wind","Sprott Power Corporation","3.60 MW","wind","wind_turbine",,50,-100
"Kangiqiniq Power Plant","Qulliq Energy Corporation","3.55 MW","diesel","combustion",,50,-100
"Midhurst 2","Recurrent Energy","3.50 MW","solar","photovoltaic",,50,-100
"Midhurst 3","Recurrent Energy","3.50 MW","solar","photovoltaic",,50,-100
"Midhurst 6","Recurrent Energy","3.50 MW","solar","photovoltaic",,50,-100
"Methals Power Staion","Black River Hydro","3.40 MW","hydro","water-storage",,50,-100
"Downtown District Energy Centre","Calgary District Heating Inc.","3.30 MW","gas","combustion",,50,-100
"Barrington Wind Power","Watts Wind Energy","3.20 MW","wind","wind_turbine",,50,-100
"Greenfield Wind","Affinity Wind","3.20 MW","wind","wind_turbine",,50,-100
"Porters Lake Wind Power","Watts Wind Energy","3.20 MW","wind","wind_turbine",,50,-100
"Second Falls Dam","Edmundston Energy","3.20 MW","hydro","run-of-the-river",,50,-100
"Cambridge Bay Power Plant","Qulliq Energy Corporation","3.11 MW","diesel","combustion",,50,-100
"Balsam Lake Solar Farm","Balsam Lake Green Energy","3.00 MW","solar","photovoltaic",,50,-100
"Frankford Generation Station","Ontario Power Generation","3.00 MW","hydro","run-of-the-river",,50,-100
"Lockston Plant","Newfoundland Power","3.00 MW","hydro","water-storage",,50,-100
"Mine Raglan",,"3.00 MW","wind","hydrogen storage",,50,-100
"[unnamed]","Capstone Infrastructure","3.00 MW","hydro",,,50,-100
"Hydro Quebec Puvirnituq","Hydro-Québec","2.90 MW","oil","combustion",,50,-100
"Centrale de Port-Menier","Hydro-Québec","2.80 MW","oil","combustion",,50,-100
"Centrale hydroélectrique Daniel Larocque","Électricité Algonquin Power","2.72 MW","hydro","run-of-the-river",,50,-100
"Heart's Desire","Newfoundland Power","2.70 MW","hydro","water-storage",,50,-100
"Topsail Generating Station","Newfoundland Power Inc.","2.60 MW","hydro","water-storage",,50,-100
"Charlottetown Diesel Generating Station","Newfoundland and Labrador Hydro","2.54 MW","diesel","combustion",,50,-100
"Gaetz Brook Community Wind Farm","Natural Forces","2.35 MW","wind","wind_turbine",,50,-100
"New Victoria Community Wind Power","Celtic Current","2.35 MW","wind","wind_turbine",,50,-100
"Gjoa Haven","Qulliq Energy Corporation","2.32 MW","oil","combustion",,50,-100
"Bateston Wind Farm","Celtic Current","2.30 MW","wind","wind_turbine",,50,-100
"Mulgrave Community Wind","Celtic Current","2.30 MW","wind","wind_turbine",,50,-100
"Pictou Landing Wind","Wind4All","2.30 MW","wind","wind_turbine",,50,-100
"Pond Inlet Power Plant","Qulliq Energy Corporation","2.25 MW","diesel","combustion",,50,-100
"Baker Lake Power Plant","Qulliq Energy Corporation","2.24 MW","diesel","combustion",,50,-100
"Kugluktuk Power Plant","Qulliq Energy Corporation","2.22 MW","diesel","combustion",,50,-100
"Tuktoyaktuk Power Plant","Northwest Territories Power Corporation","2.21 MW","diesel","combustion",,50,-100
"3NE Solar Farm","Three Nations Energy","2.20 MW","solar","photovoltaic",,50,-100
"Pouvoir Riverin","Algonquin Power","2.01 MW","hydro","run-of-the-river",,50,-100
"Amherst Solar Garden","Nova Scotia Power","2.00 MW","solar","photovoltaic",,50,-100
"Auburn Generating Station","Ontario Power Generation","2.00 MW","hydro","run-of-the-river",,50,-100
"Bioenergy Research & Demonstration Facility",,"2.00 MW","biomass;gas","gasification",,50,-100
"Black Pond","Scotian Wind","2.00 MW","wind","wind_turbine",,50,-100
"Cape Mabou","Black River Wind","2.00 MW","wind","wind_turbine",,50,-100
"Creignish Rear Wind Farm","Black River Wind","2.00 MW","wind","wind_turbine",,50,-100
"East Angus","Boralex","2.00 MW","hydro","run-of-the-river",,50,-100
"Galetta Hydro Station","TransAlta","2.00 MW","hydro","run-of-the-river",,50,-100
"Green Acres Solar Farm","Hutterite Colony","2.00 MW","solar","photovoltaic",,50,-100
"Hybridyne Solar Project","Hybridyne Power Generation Site A Inc.","2.00 MW","solar","photovoltaic",,50,-100
"Hydo Quebec Kangiqsualujjuaq","Hydo Quebec","2.00 MW","diesel","combustion",,50,-100
"Isle Madame Community Wind","Scotian Wind","2.00 MW","wind","wind_turbine",,50,-100
"Kaizer Meadow Wind","Municipality of the District of Chester","2.00 MW","wind","wind_turbine",,50,-100
"Lakefield Hydroelectric Generating Station",,"2.00 MW","hydro",,,50,-100
"Little River Harbour Community Wind","Scotian Wind","2.00 MW","wind","wind_turbine",,50,-100
"Merrickville Generating Station","Ontario Power Generation","2.00 MW","hydro","water-storage",,50,-100
"Parker Mountain Wind Farm","Scotian Wind","2.00 MW","wind","wind_turbine",,50,-100
"Ruby Farms","Ruby Farms","2.00 MW","solar","photovoltaic",,50,-100
"Saint Rose Community Wind","Scotian Wind","2.00 MW","wind","wind_turbine",,50,-100
"Tusket Hydroelectric Station","Nova Scotia Power","2.00 MW","hydro","water-storage",,50,-100
"Walton Community Wind","Scotian Wind","2.00 MW","wind","wind_turbine",,50,-100
"[unnamed]",,"2.00 MW","biomass","combustion",,50,-100
"Qulliq Energy Corporation Clyde River","Qulliq Energy Corporation","1.91 MW","diesel","combustion",,50,-100
"Kingston Mills Generating Station","Energy Ottawa","1.90 MW","hydro","water-storage",,50,-100
"Point Aconi Wind Project","Celtic Current","1.90 MW","wind","wind_turbine",,50,-100
"Sa/See Energy","Copper Niisuu LP and White River First Nation","1.90 MW","solar","photovoltaic",,50,-100
"Qulliq Energy Corp Taloyoak","Qulliq Energy Corp","1.84 MW","diesel","combustion",,50,-100
"Fort Mcpherson","Northwest Territories Power Corporation","1.83 MW","diesel","combustion",,50,-100
"Aklavik","Northwest Territories Power Corporation","1.80 MW","diesel","combustion",,50,-100
"Dickie Brook","Nova Scotia Power","1.80 MW","hydro","water-storage",,50,-100
"Kinngait Power Station","Qulliq Energy Corporation","1.80 MW","oil","combustion",,50,-100
"Qikiqtarjuaq Power Plant","Qulliq Energy Corporation","1.77 MW","diesel","combustion",,50,-100
"CPKCR Solar Farm","Canadian Pacific Kansas City Railway","1.76 MW","solar","photovoltaic",,50,-100
"Baddeck Community Wind","Scotian Wind","1.70 MW","wind","wind_turbine",,50,-100
"Antigonish Community Solar Garden","Town of Antigonish","1.65 MW","solar","photovoltaic",,50,-100
"Shediac Smart Energy Community Project","NB Power","1.63 MW","solar","photovoltaic",,50,-100
"Avondale Wind Farm","Northumberland Wind Field Inc","1.60 MW","wind","wind_turbine",,50,-100
"Digby Limited Wind Farm",,"1.60 MW","wind","wind_turbine",,50,-100
"Fitzpatrick Mountain Wind","Capstone Infrastucture","1.60 MW","wind","wind_turbine",,50,-100
"Glace Bay & Donkin Wind Farm","Cape Breton Power","1.60 MW","wind","wind_turbine",,50,-100
"Mine Raglan",,"1.60 MW","diesel","combustion",,50,-100
"Naujaat","Qulliq Energy Corporation","1.60 MW","oil","combustion",,50,-100
"Centrale Robert-A.-Boyd","Hydro-Québec","1.50 MW","solar","photovoltaic",,50,-100
"Centrale solaire Robert A. Boyd","Hydro-Québec","1.50 MW","solar","photovoltaic",,50,-100
"Watt Section","Watts Wind Energy","1.50 MW","wind","wind_turbine",,50,-100
"Cartwright","Newfoundland and Labrador Hydro","1.48 MW","diesel","combustion",,50,-100
"Sanikiluaq Power Plant","Qulliq Energy Corporation","1.43 MW","oil","combustion",,50,-100
"Fort Liard Power Station","Northwest Territories Power Corporation","1.32 MW","diesel","combustion",,50,-100
"Coral Harbour","Qulliq Energy Corporation","1.31 MW","diesel","combustion",,50,-100
"Tŝilhqot’in Solar Farm","Tŝilhqot'in Nation","1.25 MW","solar","photovoltaic",,50,-100
"Cascade Street Generating Station","Bracebridge Generation","1.20 MW","hydro",,,50,-100
"Ramea Wind Diesel",,"1.20 MW","wind","wind_turbine",,50,-100
"Prise d'eau Bersimis 1","Hydro-Québec","1.18 MW","hydro","water-storage",,50,-100
"Electrical Generating Station","Northwest Territories Power Corporation","1.10 MW","diesel","combustion",,50,-100
"Hydro Quebec Power Plant Quaqtaq","Hydro-Québec","1.10 MW","diesel","combustion",,50,-100
"Qulliq Energy Corporation   Arctic Bay","Qulliq Energy Corporation","1.10 MW","diesel","combustion",,50,-100
"West Elgin Solar Farm","Intech","1.10 MW","solar","photovoltaic",,50,-100
"Arctic Bay","Qulliq Energy Corporation","1.07 MW","diesel","combustion",,50,-100
"Qulliq Energy Corporation  Whale Cove","Qulliq Energy Corporation","1.07 MW","diesel","combustion",,50,-100
"SunMine","Teck Resources Limited","1.05 MW","solar","photovoltaic",,50,-100
"Black Tickle & Domino","Newfoundland and Labrador Hydro","1.00 MW","diesel","combustion",,50,-100
"Fisher River","Fisher River Cree Nation","1.00 MW","solar","photovoltaic",,50,-100
"Hydro Quebec Ivujivik","Hydro-Québec","1.00 MW","diesel","combustion",,50,-100
"Point Aconi 2","Celtic Current","1.00 MW","wind","wind_turbine",,50,-100
"Roseway Hydro","Nova Scotia Power","1.00 MW","hydro","water-storage",,50,-100
"WEICan R&D Park","Wind Energy Institute of Canada","1.00 MW","battery",,,50,-100
"[unnamed]",,"1.00 MW","battery",,,50,-100
"Spiddle Hill Wind Farm","Colchester Cumberland Wind Field","950 kW","wind","wind_turbine",,50,-100
"Cheticamp Wind Project",,"900 kW","wind","wind_turbine",,50,-100
"Sree Vyah Solar Project","Vuntut Gwitchin First Nation","900 kW","solar","photovoltaic",,50,-100
"Tiverton Riverhurst",,"900 kW","wind","wind_turbine",,50,-100
"ᐊᐅᔪᐃᑦᑐᖅ Grise Fiord Power Plant","Qulliq Energy Corporation","900 kW","oil","combustion",,50,-100
"IKEA Halifax","IKEA","850 kW","solar","photovoltaic",,50,-100
"Paulatuk","NWT Power Corporation","820 kW","oil","combustion",,50,-100
"Marshville",,"800 kW","wind","wind_turbine",,50,-100
"Ranney Falls Generating Station 1","Ontario Power Generation","800 kW","hydro","run-of-the-river",,50,-100
"ᐊᐅᐸᓗᒃ (ᒐᕙᒪᖃᕐᕕᐅᔪᖅ) / Aupaluk (village)","Hydo Quebec","800 kW","diesel","combustion",,50,-100
"Sachs Harbour (Ikaahuk)","NWT Power Corporation","795 kW","diesel","combustion",,50,-100
"Kagawong Hydroelectric Generating Station","Oakville Hydro Energy Services","750 kW","hydro","run-of-the-river",,50,-100
"St. Brendan's","Newfoundland and Labrador Hydro","712 kW","diesel","combustion",,50,-100
"Grand Etang Wind Farm","Nova Scotia Power","660 kW","wind","wind_turbine",,50,-100
"Ramea Wind-Hydrogen Diesel",,"625 kW","wind","wind_turbine",,50,-100
"Northwest Territories Power CorporationvGamèti","Northwest Territories Power Corporation","612 kW","diesel","combustion",,50,-100
"Brewers Mills Generating Station","Hydro One","600 kW","hydro","run-of-the-river",,50,-100
"Centrale Drummond","Hydro-Sherbrooke","600 kW","hydro",,,50,-100
"Douglas Generating Station","Multistream Power Corporation","600 kW","hydro","run-of-the-river",,50,-100
"Harmony","Nova Scotia Power","600 kW","hydro","water-storage",,50,-100
"Little Brook Wind Turbine","Nova Scotia Power","600 kW","wind","wind_turbine",,50,-100
"Eskasoni Solar","Eskasoni Renewables","583 kW","solar","photovoltaic",,50,-100
"Victoria Power Station","NL Power","550 kW","hydro","run-of-the-river",,50,-100
"Tsay Keh Dene Bioenergy Plant","Tsay Keh Dene First Nation","530 kW","biomass","combustion",,50,-100
"Factorydale Hydro","Berwick Power Commission","520 kW","hydro","water-storage",,50,-100
"Port Union Plant","Newfoundland Power","511 kW","hydro","water-storage",,50,-100
"Conestoga College Solar Farm","Conestoga College","500 kW","solar","photovoltaic",,50,-100
"Fall River Hydro Plant","Nova Scotia Power","500 kW","hydro","water-storage",,50,-100
"ZooShare Biogas Facility",,"500 kW","biogas","anaerobic_digestion",,50,-100
"Emerald Energy from Waste","Emerald Energy From Waste Inc.","420 kW","waste","thermal",,50,-100
"Roddickton Hydro Plant","Newfoundland Labrador Hydro","400 kW","hydro","run-of-the-river",,50,-100
"Fall Pond Hydro Electric Station","Newfoundland Power","350 kW","hydro","water-storage",,50,-100
"Glooscap Landing Micro-Grid","Glooscap Energy","330 kW","solar","photovoltaic",,50,-100
"Taltson Emergency Standby Diesel Generator","Northwest Territories Power Corporation","300 kW","diesel","combustion",,50,-100
"Municipality of the County of Antigonish","Municipality of the County of Antigonish","297 kW","solar","photovoltaic",,50,-100
"WEICan R&D Park Auxiliary","Wind Energy Institute of Canada","275 kW","diesel","combustion",,50,-100
"Souris Harbour Authority Eastern Cold Storage Turbine","Souris Harbour Authority Eastern Cold Storage","250 kW","wind",,,50,-100
"Colville Lake","Northwest Territories Power Corporation","240 kW","diesel","combustion",,50,-100
"Ecology Action Centre","Ecology Action Centre","231 kW","solar","photovoltaic",,50,-100
"Pabineau First Nation Community Health Center","Pabineau First Nation","231 kW","solar","photovoltaic",,50,-100
"Masstown Market","Masstown Market","230 kW","solar","photovoltaic",,50,-100
"Sable Island","Parks Canada","210 kW","diesel","combustion",,50,-100
"Cavendish Farms Wellness Center","Cavendish Farms Wellness Center","200 kW","solar","photovoltaic",,50,-100
"Eagle Lake Micro Hydro Project","Pacific Cascade Hydro Inc","200 kW","hydro","water-storage",,50,-100
"Silversmith","Silversmith Power and Light","200 kW","hydro",,,50,-100
"Dome Road Solar Independent Power","Klondike Development Organization","199 kW","solar","photovoltaic",,50,-100
"Canada Games Complex","Cape Breton University and Tugliq","150 kW","solar","photovoltaic",,50,-100
"Glooscap Community Solar","Glooscap Energy","150 kW","solar","photovoltaic",,50,-100
"Riverton Wind","Municipality of the County of Pictou","150 kW","wind",,,50,-100
"Snare Forks Standby Generator","Northwest Territories Power Corporation","150 kW","diesel","combustion",,50,-100
"Natoaganeg School","Eel Ground First Nation","148 kW","solar","photovoltaic",,50,-100
"IDEA and Design Building","Dalhousie University","125 kW","solar","photovoltaic",,50,-100
"Bedford Institute of Oceanography","NRCan","117 kW","solar","photovoltaic",,50,-100
"Halifax Water Aerotech Waste Water Treatment Plant",,"117 kW","solar","photovoltaic",,50,-100
"Bayside Travel Centre","Paqtnkek Mi’kmaw Nation","115 kW","solar","photovoltaic",,50,-100
"WEICan R&D Park Solar","Wind Energy Institute of Canada","109 kW","solar","photovoltaic",,50,-100
"East Pubnico",,"103 kW","solar","photovoltaic",,50,-100
"Cardigan Consolidated School",,"100 kW","solar","photovoltaic",,50,-100
"Day & Ross","Day & Ross","100 kW","solar","photovoltaic",,50,-100
"Fort Simpson Solar Energy Project","Northwest Territories Power Corporation","100 kW","solar","photovoltaic",,50,-100
"I Deveau Fisheries","I Deveau Fisheries","100 kW","solar","photovoltaic",,50,-100
"Municipality of the County of Colchester","Municipality of the County of Colchester","100 kW","wind","wind_turbine",,50,-100
"Universite Sainte Anne","Universite Sainte Anne","100 kW","wind","wind_turbine",,50,-100
"I Deveau Fisheries","I Deveau Fisheries","97 kW","solar","photovoltaic",,50,-100
"Membertou Sport and Wellness Centre","Membertou First Nation","91 kW","solar","photovoltaic",,50,-100
"Millbrook","Millbrook First Nation","90 kW","solar","photovoltaic",,50,-100
"Halifax WWTF","Halifax Regional Water Commission","88 kW","solar","photovoltaic",,50,-100
"Pictour Landing First Nation School","Pictou Landing First Nation","88 kW","solar",,,50,-100
"Potlotek First Nation Band Office","Potlotek First Nation","85 kW","solar","photovoltaic",,50,-100
"Mackintosh Depot","Halifax Regional Municipality","80 kW","solar","photovoltaic",,50,-100
"Pelee Island Backup Generator","Hydro One","80 kW","diesel","combustion",,50,-100
"Yarmouth 3","Acadia First Nation","80 kW","solar","photovoltaic",,50,-100
"Rockingham United Church","Rockingham United Church","78 kW","solar","photovoltaic",,50,-100
"Paqtnkek Community Hall","Paqtnkek Mi'kmaw Nation","77 kW","solar","photovoltaic",,50,-100
"Centre des pensions du gouvernement du Canada","Government of Canada","75 kW","solar","photovoltaic",,50,-100
"Don Henderson Memorial Sportsplex","Municipality of Colchester","75 kW","solar","photovoltaic",,50,-100
"Rath Eastlink Community Center","Municipality of Colchester","75 kW","solar","photovoltaic",,50,-100
"Seakist","Glooscap First Nation","75 kW","solar","photovoltaic",,50,-100
"Shelburne Campus","Nova Scotia Community College","75 kW","solar","photovoltaic",,50,-100
"Strait Area Campus","Nova Scotia Community College","75 kW","solar","photovoltaic",,50,-100
"Municipality of the County of Kings","Municipality of the County of Kings","72 kW","solar","photovoltaic",,50,-100
"Pictou Landing First Nation Training Centre","Pictou Landing First Nation","72 kW","solar","photovoltaic",,50,-100
"Stewiacke Solar Garden",,"72 kW","solar","photovoltaic",,50,-100
"Webster Farms","Annapolis Valley First Nation","69 kW","solar","photovoltaic",,50,-100
"Dartmouth North Community Centre","Halifax Regional Municipality.","69 kW","solar","photovoltaic",,50,-100
"Heatherton Community Center",,"65 kW","solar","photovoltaic",,50,-100
"Tulita","Tulita Land Corporation","57 kW","solar","photovoltaic",,50,-100
"Sacred Heart School","Sacred Heart School","55 kW","solar","photovoltaic",,50,-100
"Colville Lake Solar Project","Northwest Territories Power Corporation","54 kW","solar","photovoltaic",,50,-100
"Atlantic School of Theology","Atlantic School of Theology","50 kW","solar","photovoltaic",,50,-100
"IDEA Building","Dalhousie University","50 kW","solar","photovoltaic",,50,-100
"Joggins",,"50 kW","wind","wind_turbine",,50,-100
"Le Centre Pombcoup","Municipality of the District of Argyle","50 kW","solar","photovoltaic",,50,-100
"Municipality of the District of Shelburne Turbine","Municipality of the District of Shelburne","50 kW","wind","wind_turbine",,50,-100
"TCRCE Operations","Municipality of the District of Yarmouth","50 kW","solar","photovoltaic",,50,-100
"Valley Region SWRM Authority`","Valley Region SWRM Authority","50 kW","wind","wind_turbine",,50,-100
"Yarmouth County Solid Waste Park","Town of Yarmouth, the Municipality of Yarmouth, and the Municipality of Argyle","50 kW","solar","photovoltaic",,50,-100
"Yarmouth Fire Department","Town of Yarmouth","50 kW","solar","photovoltaic",,50,-100
"Woodlawn United Church","Woodlawn United Church","48 kW","solar","photovoltaic",,50,-100
"Fire Station 62 - Williamswood","Halifax Regional Municipality","47 kW","solar","photovoltaic",,50,-100
"Milford Community Center",,"45 kW","solar","photovoltaic",,50,-100
"Town of Wolfville","Town of Wolfville","45 kW","solar","photovoltaic",,50,-100
"Kinkora Wind","Community of Kinkora","40 kW","wind","wind_turbine",,50,-100
"[unnamed]","Hydro-Québec","40 kW","diesel","combustion",,50,-100
"Ivany Campus","Nova Scotia Community College","39 kW","solar","photovoltaic",,50,-100
"Knox United","Knox United","38 kW","solar","photovoltaic",,50,-100
"Shediac Multipurpose Centre","Town of Shediac","38 kW","solar","photovoltaic",,50,-100
"Sackville Public Library","Halifax Regional Municipality","35 kW","solar","photovoltaic",,50,-100
"The Hall","Parrsboro Band Association","35 kW","solar","photovoltaic",,50,-100
"Orchard PRV Chamber","Halifax Regional Water","34 kW","hydro",,,50,-100
"Dawson City Water Treatment Plant",,"28 kW","solar","photovoltaic",,50,-100
"Fundy Ocean Research Centre for Energy","Fundy Ocean Research Centre for Energy","25 kW","solar","photovoltaic",,50,-100
"West Pubnico Wastewater Treatment Plant","Municipality of the District of Argyle","25 kW","solar","photovoltaic",,50,-100
"Atlantic Division Association Canoe Kayak Canada``","Atlantic Division Association Canoe Kayak Canada``","23 kW","solar","photovoltaic",,50,-100
"Plymouth Community Centre","Plymouth Community Centre","21 kW","solar","photovoltaic",,50,-100
"Atlantic Superstore Highway 7 Turbine","Loblaws","20 kW","wind","wind_turbine",,50,-100
"Physical Science Complex","St. Francis Xavier University","18 kW","solar","photovoltaic",,50,-100
"St George and St Andrew United Church",,"15 kW","solar","photovoltaic",,50,-100
"Kingston Lions Club","Kingston Lions Club","15 kW","solar","photovoltaic",,50,-100
"Waycobah First Nation Band Council","Waycobah First Nation","15 kW","solar","photovoltaic",,50,-100
"Fire Station 3","Halifax Regional Municipality","12 kW","solar","photovoltaic",,50,-100
"Alderney Gate Public Library","Halifax Regional Municipality","12 kW","solar","photovoltaic",,50,-100
"Northbrook Police Training Facility","Halifax Regional Municipality.","12 kW","solar","photovoltaic",,50,-100
"The Hospice Society of Greater Halifax","The Hospice Society of Greater Halifax","12 kW","solar","photovoltaic",,50,-100
"Bloomfield Centre","St. Francis Xavier University","10 kW","solar","photovoltaic",,50,-100
"The Academy","Clean Annapolis River Project","10 kW","solar","photovoltaic",,50,-100
"Fort Needham Memorial Park Washroom","Halifax Regional Municipality","9 kW","solar","photovoltaic",,50,-100
"Sir Sanford Fleming Park Canteen","Halifax Regional Municipality","9 kW","solar","photovoltaic",,50,-100
"Village of Canning",,"6 kW","solar","photovoltaic",,50,-100
"Chocolate Lake Beach Washroom","Halifax Regional Municipality","4 kW","solar","photovoltaic",,50,-100
"North Commons Public Washroom","Halifax Regional Municipality","3 kW","solar","photovoltaic",,50,-100
"Shepard Solar Park","City of Calgray","1 kW","solar","photovoltaic",,50,-100
"Alain-Lemaire Solar Park","RSP Energie Inc","","solar","thermal",,50,-100
"Alberta Pacific Forest Industries",,"","biomass",,,50,-100
"Alexandra District Energy Utility","Lulu Island Energy Company","","gas;geothermal","combustion;geothermal",,50,-100
"Almonte Electric Plant","Mississippi River Power Corp","","hydro","run-of-the-river",,50,-100
"Aurora Mine Power Plant",,"","gas","combustion",,50,-100
"Awasis Solar Project",,"","solar","photovoltaic",,50,-100
"Bala Generating Station","Ontario Power Generation","","hydro","run-of-the-river",,50,-100
"Bear Creek Cogeneration Power Plant",,"","gas;biomass","combustion",,50,-100
"Big Beaver Falls Generating Station",,"","hydro","run-of-the-river",,50,-100
"Boat Bluff",,"","diesel","combustion",,50,-100
"Bracebridge Falls Generating Station","Bracebridge Generating Ltd","","hydro","run-of-the-river",,50,-100
"Brandon Manitoba Gas Power Plant",,"","gas","combustion",,50,-100
"Burnaby Mountain District Energy Utility","Corix Multi-Utility Services Inc","","biomass","combustion",,50,-100
"Calstock Power Plant",,"","biomass",,,50,-100
"Camp Hill Power Plant",,"","","combustion",,50,-100
"Camp Three Rapids Generating Station",,"","hydro","run-of-the-river",,50,-100
"Campbellford Generating Station","Peterborough Utilities","","hydro",,,50,-100
"Cardinal Power Plant",,"","gas","combustion",,50,-100
"Carson Creek Power Generation",,"","gas","combustion",,50,-100
"Central Utilities Plant","University of Guelph","","gas","combustion",,50,-100
"Centrale Dufferin","Boralex","","hydro","water-storage",,50,-100
"Centrale Fraser","Génération Hydro","","hydro",,,50,-100
"Centrale de Rivière-Du-Loup",,"","hydro",,,50,-100
"Centrale des Rapides-Farmer","Hydro-Québec","","hydro","run-of-the-river",Q2944516,45.5,-75.76
"Centrale thermique",,"","diesel","combustion",,50,-100
"Centrale thermique",,"","gas","thermal",,50,-100
"Centrale thermique de Cap-aux-Meules","Hydro-Québec","","diesel","combustion",,50,-100
"Charlottetown Thermal Generating Station",,"","",,,50,-100
"Chickwat Creek","Renewable Power Corp","","hydro","run-of-the-river",,50,-100
"Christina Lake Cenovus Power Station",,"","gas","combustion",,50,-100
"Christina Lake MEG Power Plant",,"","gas","combustion",,50,-100
"City of Surrey District Energy Boiler Plant","Fir District Heating;All-Pro Services","","gas","combustion",,50,-100
"ConocoPhillips Gas Plant",,"","gas","combustion",,50,-100
"Creative Energy Beatty Steam Plant","Creative Energy","","gas","combustion",Q5061158,50,-100
"Enerdu","Enerdu Power Systems","","hydro","run-of-the-river",,50,-100
"False Creek Energy Centre","City of Vancouver","","wastewater;gas","combustion",,50,-100
"Former Lake Superior Power Plant",,"","gas","combustion",,50,-100
"Foster Creek Power Plant",,"","gas","combustion",,50,-100
"Grand Lake Generating Station","NB Power","","coal",,,50,-100
"Great Northern Timber",,"","biomass","combustion",,50,-100
"Green Electron Power Plant",,"","",,,50,-100
"Hanna Chute Generating Station","Ontario Power Generation","","hydro","run-of-the-river",,50,-100
"High Falls Generating Station",,"","hydro","run-of-the-river",,50,-100
"High Falls Generating Station","Ontario Power Generation","","hydro","run-of-the-river",,50,-100
"Hilly Acres Farm","Hilly Acres Farm","","solar","photovoltaic",,50,-100
"Horizon Oil Sands Power Plant",,"","gas","combustion",,50,-100
"Hydro","Manitoba Hydro","","hydro",,,50,-100
"Incinérateur de Québec",,"","waste","combustion",,50,-100
"Intercontinental Pulp Mill Biomass Power Station",,"","biomass",,,50,-100
"Irondale Generating Station",,"","hydro","run-of-the-river",,50,-100
"Iroquois Falls NPI Power Plant",,"","gas","combustion",,50,-100
"Kirkland Lake baseload plant",,"","gas","combustion",,50,-100
"Manitoba Hydro","Manitoba Hydro","","",,,50,-100
"Matthias Generating Station","Orillia Power Generation","","hydro",,,50,-100
"Muskeg River Cogeneration",,"","gas","combustion",,50,-100
"Nabiye Power Plant",,"","gas","combustion",,50,-100
"PEI Energy Systems District Heating Plant","Enwave","","waste","combustion",,50,-100
"PEI Energy Systems District Heating Plant","Enwave","","waste","combustion",,50,-100
"Poplar Creek Power Plant",,"","gas","combustion",,50,-100
"Poplar Hills",,"","",,,50,-100
"Port Mellon Howe Sound Green Energy Power Station",,"","biomass",,,50,-100
"Primrose South Power Plant",,"","",,,50,-100
"Queen Elizabeth Power Plant","Saskpower","","gas",,,50,-100
"Ragged Chutes Hydropneumatic Power Plant",,"","hydropneumatic","run-of-the-river",Q1389278,50,-100
"Ragged Rapids Generating Station","Ontario Power Generation","","hydro","run-of-the-river",,50,-100
"Rainbow Lake Power Plant",,"","gas","combustion",,50,-100
"Renfrew Power Generation",,"","hydro","run-of-the-river",,50,-100
"Sackville Landfill Methene Recovery","Highland Energy","","biogas","combustion",,50,-100
"Scotford Cogeneration Power Plant",,"","gas","combustion",,50,-100
"Scott’s Dam","Algonquin Power","","hydro","water-storage",,50,-100
"South Power House",,"","",,,50,-100
"South River Hydroelectric Generating Station",,"","hydro",,,50,-100
"St Clair Energy Centre",,"","gas","combustion",Q7592811,42.896389,-82.398333
"Steam Plant",,"","","combustion",,50,-100
"Storage Inn",,"","solar","photovoltaic",,50,-100
"The Bioenergy Plant","University of Northern British Columbia","","biomass","gasification",,50,-100
"Thorold Power Plant",,"","gas","combustion",,50,-100
"Thunderbird Photovoltaic",,"","solar","photovoltaic",,50,-100
"Trethewey Falls Generating Station","Ontario Power Generation","","hydro","run-of-the-river",,50,-100
"Tunis Power Plant","Atlantic Power","","gas","combustion",,50,-100
"Tweed Mill Dam",,"","hydro","run-of-the-river",,50,-100
"Vancouver General Hospital Energy Centre",,"","gas;waste_heat","combustion;heat_recovery",,50,-100
"Victoria Junction Combustion Turbines",,"","",,,50,-100
"Wasdell Falls Generating station","Lakeland Generation Inc","","hydro","run-of-the-river",,50,-100
"West Village Energy Centre","City of Surrey","","gas","combustion",,50,-100
"White River Power Generation",,"","hydro",,,50,-100
"White River Power Generation",,"","",,,50,-100
"York Energy Centre",,"","gas","combustion",Q8055444,44.075611,-79.531694
"[unnamed]",,"","solar","photovoltaic",,50,-100
"[unnamed]","River District Energy","","gas","combustion",,50,-100
"[unnamed]",,"","solar","photovoltaic",,50,-100
"[unnamed]",,"","solar","photovoltaic",,50,-100
"[unnamed]",,"","solar",,,50,-100
"[unnamed]",,"","solar","photovoltaic",,50,-100
"[unnamed]","Robert G. Lake Generating Station","","hydro","run-of-the-river",,50,-100
"[unnamed]",,"","solar","photovoltaic",,50,-100
"[unnamed]",,"","solar","photovoltaic",,50,-100
"[unnamed]",,"","solar","photovoltaic",,50,-100
"[unnamed]",,"","solar","photovoltaic",,50,-100
"[unnamed]",,"","hydro","run-of-the-river",,50,-100
"[unnamed]",,"","hydro",,,50,-100
"[unnamed]",,"","hydro",,,50,-100
"[unnamed]",,"","solar","photovoltaic",,50,-100
"[unnamed]",,"","",,,50,-100
"[unnamed]","Ontario Power Generation","","hydro",,,50,-100
"[unnamed]",,"","solar","photovoltaic",,50,-100
"[unnamed]",,"","solar","photovoltaic",,50,-100
"[unnamed]",,"","gas","combustion",,50,-100
"[unnamed]",,"","solar","photovoltaic",,50,-100
"[unnamed]",,"","solar","photovoltaic",,50,-100
"[unnamed]",,"","solar","photovoltaic",,50,-100
"[unnamed]",,"","solar","photovoltaic",,50,-100
"[unnamed]",,"","solar","photovoltaic",,50,-100
"[unnamed]",,"","solar","photovoltaic",,50,-100
"[unnamed]",,"","solar","photovoltaic",,50,-100
"[unnamed]",,"","solar","photovoltaic",,50,-100
"[unnamed]",,"","solar","photovoltaic",,50,-100
"[unnamed]",,"","solar","photovoltaic",,50,-100
"[unnamed]",,"","solar","photovoltaic",,50,-100
"[unnamed]","Malibu Club Young Life Camp","","hydro","run-of-the-river",,50,-100
"[unnamed]",,"","solar","photovoltaic",,50,-100
"[unnamed]",,"","solar","photovoltaic",,50,-100
"[unnamed]",,"","solar","photovoltaic",,50,-100
"[unnamed]",,"","solar","photovoltaic",,50,-100
"[unnamed]",,"","solar","photovoltaic",,50,-100
"[unnamed]",,"","solar","photovoltaic",,50,-100
"[unnamed]",,"","",,,50,-100
"[unnamed]",,"","gas","combustion",,50,-100
"[unnamed]",,"","",,,50,-100
"[unnamed]",,"","gas","combustion",,50,-100
"[unnamed]",,"","solar","photovoltaic",,50,-100
"[unnamed]",,"","solar","photovoltaic",,50,-100
"[unnamed]",,"","solar",,,50,-100
"[unnamed]",,"","",,,50,-100
"[unnamed]",,"","hydro","run-of-the-river",,50,-100
"[unnamed]",,"","solar","photovoltaic",,50,-100
"[unnamed]",,"","solar","photovoltaic",,50,-100
"[unnamed]",,"","solar","photovoltaic",,50,-100
"[unnamed]",,"","solar","photovoltaic",,50,-100
"[unnamed]",,"","hydro",,,50,-100
"[unnamed]",,"","solar","photovoltaic",,50,-100
"[unnamed]",,"","solar","photovoltaic",,50,-100
"[unnamed]",,"","hydro",,,50,-100
"[unnamed]",,"","solar","photovoltaic",,50,-100
"[unnamed]","Ontario Power Generation","","hydro",,,50,-100
"[unnamed]",,"","solar","photovoltaic",,50,-100
"[unnamed]",,"","solar","photovoltaic",,50,-100
"[unnamed]",,"","solar","photovoltaic",,50,-100
"[unnamed]",,"","hydro",,,50,-100
"[unnamed]",,"","solar","photovoltaic",,50,-100
"[unnamed]",,"","solar",,,50,-100
"[unnamed]",,"","solar","photovoltaic",,50,-100
"[unnamed]",,"","solar","photovoltaic",,50,-100
"[unnamed]",,"","solar","photovoltaic",,50,-100
"[unnamed]",,"","solar","photovoltaic",,50,-100
"[unnamed]",,"","solar","photovoltaic",,50,-100
"[unnamed]",,"","solar","photovoltaic",,50,-100
"[unnamed]",,"","solar","photovoltaic",,50,-100
"[unnamed]",,"","solar","photovoltaic",,50,-100
"[unnamed]",,"","",,,50,-100
"[unnamed]",,"","solar","photovoltaic",,50,-100
"[unnamed]",,"","hydro",,,50,-100
"[unnamed]",,"","",,,50,-100
"[unnamed]",,"","solar",,,50,-100
"[unnamed]",,"","solar","photovoltaic",,50,-100
"[unnamed]",,"","solar","photovoltaic",,50,-100
"[unnamed]",,"","solar","photovoltaic",,50,-100
"[unnamed]",,"","solar","photovoltaic",,50,-100
"[unnamed]",,"","solar",,,50,-100
"[unnamed]",,"","",,,50,-100
"[unnamed]",,"","",,,50,-100
"[unnamed]",,"","",,,50,-100
"[unnamed]",,"","",,,50,-100
"[unnamed]",,"","",,,50,-100
"[unnamed]",,"","",,,50,-100
"[unnamed]",,"","",,,50,-100
"[unnamed]",,"","",,,50,-100
"[unnamed]",,"","",,,50,-100
"[unnamed]",,"","solar",,,50,-100
"[unnamed]",,"","solar","photovoltaic",,50,-100
"[unnamed]",,"","solar","photovoltaic",,50,-100
"[unnamed]",,"","solar","photovoltaic",,50,-100
"[unnamed]",,"","solar","photovoltaic",,50,-100
"[unnamed]",,"","solar","photovoltaic",,50,-100
"[unnamed]",,"","solar","photovoltaic",,50,-100
"[unnamed]",,"","solar","photovoltaic",,50,-100
"[unnamed]",,"","solar","photovoltaic",,50,-100
"[unnamed]",,"","solar","photovoltaic",,50,-100
"[unnamed]",,"","solar","photovoltaic",,50,-100
"[unnamed]",,"","solar","photovoltaic",,50,-100
"[unnamed]",,"","solar","photovoltaic",,50,-100
"[unnamed]",,"","solar","photovoltaic",,50,-100
"[unnamed]",,"","hydro",,,50,-100
"[unnamed]",,"","hydro",,,50,-100
"[unnamed]",,"","solar","photovoltaic",,50,-100
"[unnamed]","River District Energy","","gas","combustion",,50,-100